{"nearestStore":{"id":"store-gb-3600100","storeId":"T9","distance":4.02,"name":"Warhammer - Tottenham Court Road","latitude":51.5182164,"longitude":-0.131776,"country":"GB","postalCode":"W1T 7RB","city":"London","address1":"251, Tottenham Court Road","type":"hobbyCentre","telephone":"020 7637 9356","seoUrl":"Warhammer-Tottenham-Court-Road","facebookId":"WarhammerTottenhamCourtRoad"},"locations":[{"id":"store-gb-3600100","storeId":"T9","distance":4.02,"name":"Warhammer - Tottenham Court Road","latitude":51.5182164,"longitude":-0.131776,"country":"GB","postalCode":"W1T 7RB","city":"London","address1":"251, Tottenham Court Road","type":"hobbyCentre","telephone":"020 7637 9356","seoUrl":"Warhammer-Tottenham-Court-Road","facebookId":"WarhammerTottenhamCourtRoad"},{"id":"store-gb-1000120","storeId":"BM","distance":6.93,"name":"Warhammer - Barnet","latitude":51.65101,"longitude":-0.19663,"country":"GB","postalCode":"EN5 5UE","city":"London","address1":"7c High Street","address2":"Barnet","type":"hobbyCentre","telephone":"020 8216 5862","seoUrl":"Warhammer-Barnet","facebookId":"WarhammerBarnet","twitterId":"GWBarnet"},{"id":"store-gb-1000110","storeId":"E6","distance":8.66,"name":"Warhammer - Enfield","latitude":51.65377,"longitude":-0.09348,"country":"GB","postalCode":"EN2 7AF","city":"London","address1":"65 Windmill Hill","type":"hobbyCentre","telephone":"0208 3644825","seoUrl":"Warhammer-Enfield","facebookId":"WarhammerEnfield","twitterId":"GW_Enfield"},{"id":"store-gb-1000208","storeId":"K1","distance":10.41,"name":"Warhammer - Kingston","latitude":51.412,"longitude":-0.30223,"country":"GB","postalCode":"KT1 1SF","county":"London","city":"Kingston","address1":"33 Fife Road","type":"hobbyCentre","telephone":"0208 549 5224","seoUrl":"Warhammer-Kingston","facebookId":"WarhammerKingston","twitterId":"gwkingston"},{"id":"store-gb-1000328","storeId":"W2","distance":10.67,"name":"Warhammer - Watford","latitude":51.65472,"longitude":-0.39334,"country":"GB","postalCode":"WD17 2LH","county":"Hertfordshire","city":"Watford","address1":"Unit Q, Harlequin Centre","address2":"1A Queen Street","type":"hobbyCentre","telephone":"01923 245388","seoUrl":"Warhammer-Watford","facebookId":"WarhammerWatford","twitterId":"WarhammerWatford"},{"id":"store-gb-1000318","storeId":"U2","distance":11.42,"name":"Warhammer - Uxbridge","latitude":51.54417,"longitude":-0.4746,"country":"GB","postalCode":"UB8 1LD","county":"Middlesex","city":"Uxbridge","address1":"231 High Street","type":"hobbyCentre","telephone":"01895 252 800","seoUrl":"Warhammer-Uxbridge","facebookId":"WarhammerUxbridge","twitterId":"GWUxbridge"},{"id":"store-gb-1000158","storeId":"C4","distance":13.11,"name":"Warhammer - Croydon","latitude":51.37456,"longitude":-0.09703,"country":"GB","postalCode":"CR0 1LH","county":"London","city":"Croydon","address1":"Unit 2, Norfolk House","address2":"Wellesley Road","type":"hobbyCentre","telephone":"0208 680 4600","seoUrl":"Warhammer-Croydon","facebookId":"WarhammerCroydon","twitterId":"GWCroydon"},{"id":"store-gb-900280","storeId":"B6","distance":14.14,"name":"Warhammer - Bromley","latitude":51.40231,"longitude":0.016728,"country":"GB","postalCode":"BR1 1TS","county":"London","city":"Bromley","address1":"Unit 24, The Mall","type":"hobbyCentre","telephone":"0208 4660678","seoUrl":"Warhammer-Bromley","facebookId":"WarhammerBromley","twitterId":"GWBromley"},{"id":"store-gb-1000288","storeId":"S9","distance":14.94,"name":"Warhammer - St Albans","latitude":51.75098,"longitude":-0.34149,"country":"GB","postalCode":"AL3 4EB","county":"Hertfordshire","city":"St Albans","address1":"18 Heritage Close","type":"hobbyCentre","telephone":"01727 861193","seoUrl":"Warhammer-St-Albans","facebookId":"WarhammerStAlbans","twitterId":"GWStAlbans"},{"id":"store-gb-1000172","storeId":"E7","distance":15.16,"name":"Warhammer - Epsom","latitude":51.33437,"longitude":-0.26396,"country":"GB","postalCode":"KT19 8AD","county":"Surrey","city":"Epsom","address1":"8 High Street","type":"hobbyCentre","telephone":"01372 751881","seoUrl":"Warhammer-Epsom","facebookId":"WarhammerEpsom"},{"id":"store-gb-1000286","storeId":"S8","distance":15.45,"name":"Warhammer - Staines","latitude":51.43355,"longitude":-0.51454,"country":"GB","postalCode":"TW18 4SP","county":"Middlesex","city":"Staines","address1":"8 Clarence Street","type":"hobbyCentre","telephone":"01784 460 675","seoUrl":"Warhammer-Staines","facebookId":"WarhammerStaines","twitterId":"GWStaines"},{"id":"store-gb-1000266","storeId":"R2","distance":16.87,"name":"Warhammer - Romford","latitude":51.57815,"longitude":0.181304,"country":"GB","postalCode":"RM1 3ED","county":"London","city":"Romford","address1":"12 Quadrant Arcade","type":"hobbyCentre","telephone":"01708 742140","seoUrl":"Warhammer-Romford","facebookId":"WarhammerRomford","twitterId":"GWRomford"},{"id":"store-gb-1000188","storeId":"H7","distance":17.9,"name":"Warhammer - Hemel Hempstead","latitude":51.75207,"longitude":-0.47233,"country":"GB","postalCode":"HP1 1BB","county":"Hertfordshire","city":"Hemel Hempstead","address1":"117 Marlowes","type":"hobbyCentre","telephone":"01442 249752","seoUrl":"Warhammer-Hemel-Hempstead","facebookId":"WarhammerHemel","twitterId":"GWHemel"},{"id":"store-gb-1000336","storeId":"W8","distance":21.88,"name":"Warhammer - Woking","latitude":51.3206,"longitude":-0.55739,"country":"GB","postalCode":"GU21 6HJ","county":"Surrey","city":"Woking","address1":"Unit 3, Cleary Court","address2":"169 Church Street East","type":"hobbyCentre","telephone":"01483 771 675","seoUrl":"Warhammer-Woking","facebookId":"WarhammerWoking","twitterId":"GWWoking"},{"id":"store-gb-1000226","storeId":"M6","distance":22.19,"name":"Warhammer - Maidenhead","latitude":51.5215,"longitude":-0.72312,"country":"GB","postalCode":"SL6 1EE","county":"Berkshire","city":"Maidenhead","address1":"1 Kingsway Chambers","address2":"King Street","type":"hobbyCentre","telephone":"01628 631 747","seoUrl":"Warhammer-Maidenhead","facebookId":"WarhammerMaidenhead","twitterId":"GWMaidenhead"},{"id":"store-gb-1000192","storeId":"HW","distance":24.03,"name":"Warhammer - High Wycombe","latitude":51.6294207,"longitude":-0.7543382,"country":"GB","postalCode":"HP11 2AU","county":"Buckinghamshire","city":"High Wycombe","address1":"33 Eden Walk Gallery","type":"hobbyCentre","telephone":"0149 453 1494","seoUrl":"Warhammer-High-Wycombe","facebookId":"WarhammerHighWycombe"},{"id":"store-gb-1000290","storeId":"SJ","distance":24.13,"name":"Warhammer - Stevenage","latitude":51.90022,"longitude":-0.20088,"country":"GB","postalCode":"SG1 1DA","county":"Hertfordshire","city":"Stevenage","address1":"5 Queensway","type":"hobbyCentre","telephone":"01438 355044","seoUrl":"Warhammer-Stevenage","facebookId":"WarhammerStevenage","twitterId":"GWStevenage"},{"id":"store-gb-1000184","storeId":"G2","distance":26.85,"name":"Warhammer - Guildford","latitude":51.23529,"longitude":-0.57183,"country":"GB","postalCode":"GU1 3QT","county":"Surrey","city":"Guildford","address1":"Unit 1","address2":"9/12 Tunsgate","type":"hobbyCentre","telephone":"01483 451 793","seoUrl":"Warhammer-Guildford","facebookId":"WarhammerGuildford","twitterId":"GWGuildford"},{"id":"store-gb-1900011","storeId":"BQ","distance":28.91,"name":"Warhammer- Basildon ","latitude":51.571851371263,"longitude":0.46328174534981,"country":"GB","postalCode":"SS14 1LG","city":"Basildon","address1":"Ground Floor Axis Development","address2":"Southernhay ","type":"hobbyCentre","telephone":"01268 280192","seoUrl":"Warhammer-Basildon","facebookId":"WarhammerBasildon"},{"id":"store-gb-900240","storeId":"C9","distance":30.09,"name":"Warhammer - Crawley","latitude":51.11587,"longitude":-0.18786,"country":"GB","postalCode":"RH10 1DX","county":"West Sussex","city":"Crawley","address1":"11 Broadway","type":"hobbyCentre","telephone":"01293 552072","seoUrl":"Warhammer-Crawley","facebookId":"WarhammerCrawley","twitterId":"WarhammerCrawley"},{"id":"store-gb-900248","storeId":"A4","distance":31.69,"name":"Warhammer - Aylesbury","latitude":51.81642,"longitude":-0.8124,"country":"GB","postalCode":"HP20 2PN","county":"Buckinghamshire","city":"Aylesbury","address1":"6 Market Street","type":"hobbyCentre","telephone":"01296 429703","seoUrl":"Warhammer-Aylesbury","facebookId":"WarhammerAylesbury","twitterId":"GWAylesbury"},{"id":"store-gb-1000144","storeId":"C8","distance":31.92,"name":"Warhammer - Chelmsford","latitude":51.73167,"longitude":0.476238,"country":"GB","postalCode":"CM2 6FL","county":"Essex","city":"Chelmsford","address1":"Unit 4C, Phase 2","address2":"The Meadows Shopping Centre","type":"hobbyCentre","telephone":"01245 490048","seoUrl":"Warhammer-Chelmsford","facebookId":"WarhammerChelmsford","twitterId":"GWChelmsford"},{"id":"store-gb-4300009","storeId":"CJ","distance":33.59,"name":"Warhammer - Chatham","latitude":51.3842046,"longitude":0.5240426,"country":"GB","postalCode":"ME4 4JA","city":"Chatham ","address1":"14 Military Road","type":"hobbyCentre","telephone":"01634 817287","seoUrl":"Warhammer-Chatham","facebookId":"WarhammerChatham"},{"id":"store-gb-1000264","storeId":"R1","distance":33.66,"name":"Warhammer - Reading","latitude":51.45531,"longitude":-0.97637,"country":"GB","postalCode":"RG1 7QA","county":"Berkshire","city":"Reading","address1":"29 Oxford Road","type":"hobbyCentre","telephone":"01189 598693","seoUrl":"Warhammer-Reading","facebookId":"WarhammerReading"},{"id":"store-gb-1000314","storeId":"T4","distance":35.2,"name":"Warhammer - Tunbridge Wells","latitude":51.13561,"longitude":0.263064,"country":"GB","postalCode":"TN1 2AP","county":"Kent","city":"Tunbridge Wells","address1":"36 Grosvenor Road","type":"hobbyCentre","telephone":"01892 525783","seoUrl":"Warhammer-Tunbridge-Wells","facebookId":"WarhammerTunbridgeWells","twitterId":"GWTunbridgeW"},{"id":"store-gb-1000228","storeId":"M1","distance":36.85,"name":"Warhammer - Maidstone","latitude":51.27336,"longitude":0.521028,"country":"GB","postalCode":"ME14 1PA","county":"Kent","city":"Maidstone","address1":"7a Pudding Lane","type":"hobbyCentre","telephone":"01622 677435","seoUrl":"Warhammer-Maidstone","facebookId":"GamesWorkshopMaidstone","twitterId":"GWMaidstone"},{"id":"store-gb-1000280","storeId":"SL","distance":39.6,"name":"Warhammer - Southend","latitude":51.5406092,"longitude":0.7124205,"country":"GB","postalCode":"SS1 2NG","county":"Essex","city":"Southend","address1":"Unit G3 Victoria Centre","type":"hobbyCentre","telephone":"01702 461251","seoUrl":"Warhammer-Southend","facebookId":"WarhammerSouthend","twitterId":"GWSouthend"},{"id":"store-gb-1000236","storeId":"M7","distance":41.32,"name":"Games Workshop - Milton Keynes","latitude":52.04129,"longitude":-0.7626,"country":"GB","postalCode":"MK9 2AD","county":"Buckinghamshire","city":"Milton Keynes","address1":"Unit 2","address2":"502 Silbury Boulevard","type":"hobbyCentre","telephone":"0190 869 0477","seoUrl":"Games-Workshop-Milton-Keynes","facebookId":"GWMiltonKeynes","twitterId":"GWMiltonKeynes"},{"id":"store-gb-1000126","storeId":"BC","distance":41.98,"name":"Warhammer - Bedford","latitude":52.13648,"longitude":-0.47199,"country":"GB","postalCode":"MK40 1LD","county":"Bedfordshire","city":"Bedford","address1":"18 Lime Street","type":"hobbyCentre","telephone":"01234 341324","seoUrl":"Warhammer-Bedford","facebookId":"WarhammerBedford","twitterId":"GWBedford"},{"id":"store-gb-900256","storeId":"BB","distance":42.73,"name":"Warhammer - Basingstoke","latitude":51.26485,"longitude":-1.08779,"country":"GB","postalCode":"RG21 7GQ","county":"Hampshire","city":"Basingstoke","address1":"3 Potters Walk","type":"hobbyCentre","telephone":"01256 466050","seoUrl":"Warhammer-Basingstoke","facebookId":"WarhammerBasingstoke"},{"id":"store-gb-1000106","storeId":"C1","distance":47.12,"name":"Warhammer - Cambridge","latitude":52.20096,"longitude":0.125768,"country":"GB","postalCode":"CB2 1DP","county":"Cambridgeshire","city":"Cambridge","address1":"54 Regent Street","type":"hobbyCentre","telephone":"01223 313350","seoUrl":"Warhammer-Cambridge","facebookId":"WarhammerCambridge"},{"id":"store-gb-1000252","storeId":"O1","distance":47.22,"name":"Warhammer - Oxford","latitude":51.75357,"longitude":-1.26105,"country":"GB","postalCode":"OX1 2DH","county":"Oxfordshire","city":"Oxford","address1":"1A Bush House","address2":"New Inn Hall Street","type":"hobbyCentre","telephone":"01865 242182","seoUrl":"Warhammer-Oxford","facebookId":"WarhammerOxford","twitterId":"GW_Oxford"},{"id":"store-gb-1000240","storeId":"N7","distance":49.21,"name":"Warhammer - Newbury","latitude":51.39899,"longitude":-1.32596,"country":"GB","postalCode":"RG14 5DT","county":"Berkshire","city":"Newbury","address1":"114 Bartholomew Street","type":"hobbyCentre","telephone":"01635 40348","seoUrl":"Warhammer-Newbury","facebookId":"WarhammerNewbury","twitterId":"WarhammerNewbury"},{"id":"store-gb-1000136","storeId":"B3","distance":50.51,"name":"Warhammer - Brighton","latitude":50.8213,"longitude":-0.14116,"country":"GB","postalCode":"BN1 1HW","county":"East Sussex","city":"Brighton","address1":"Unit 7, Nile Pavilions","address2":"Nile Street","type":"hobbyCentre","telephone":"01273 203 333","seoUrl":"Warhammer-Brighton","facebookId":"WarhammerBrighton","twitterId":"GWBrighton"},{"id":"store-gb-1900013","storeId":"WB","distance":51.48,"name":"Warhammer - Worthing","latitude":50.8128469,"longitude":-0.3698185,"country":"GB","postalCode":"BN11 1BJ","county":"West Sussex","city":"Worthing","address1":"8 Chapel Road","type":"hobbyCentre","telephone":"01903 213 930","seoUrl":"Warhammer-Worthing","facebookId":"WarhammerWorthing","twitterId":"GWWorthing"},{"id":"store-gb-1000150","storeId":"C6","distance":52.97,"name":"Warhammer - Colchester","latitude":51.88802,"longitude":0.902494,"country":"GB","postalCode":"CO1 1LN","county":"Essex","city":"Colchester","address1":"2 Short Wyre Street","type":"hobbyCentre","telephone":"01206 767279","seoUrl":"Warhammer-Colchester","facebookId":"WarhammerColchester","twitterId":"GWColchester"},{"id":"store-gb-1500012","storeId":"A5","distance":54.23,"name":"Warhammer - Ashford","latitude":51.150276,"longitude":0.8713732,"country":"GB","postalCode":"TN24 8RY","county":"Kent","city":"Ashford","address1":"Unit 17 Park Mall Shopping Centre","type":"hobbyCentre","telephone":"01233 632960","seoUrl":"Warhammer-Ashford","facebookId":"WarhammerAshford"},{"id":"store-gb-1000244","storeId":"N8","distance":55.67,"name":"Warhammer - Northampton","latitude":52.2373922,"longitude":-0.8929017,"country":"GB","postalCode":"NN1 1JA","county":"Northamptonshire","city":"Northampton","address1":"28 St Giles Street","type":"hobbyCentre","telephone":"01604 636 687","seoUrl":"Warhammer-Northampton","facebookId":"WarhammerNorthampton","twitterId":"GWNorthampton"},{"id":"store-gb-1000168","storeId":"E5","distance":58.23,"name":"Warhammer - Eastbourne","latitude":50.7673,"longitude":0.284737,"country":"GB","postalCode":"BN21 4QG","county":"East Sussex","city":"Eastbourne","address1":"33 Cornfield Road","type":"hobbyCentre","telephone":"01323 641423","seoUrl":"Warhammer-Eastbourne","facebookId":"WarhammerEastbourne","twitterId":"GWEastbourne"},{"id":"store-gb-1000332","storeId":"W4","distance":58.45,"name":"Warhammer - Winchester","latitude":51.06426,"longitude":-1.31575,"country":"GB","postalCode":"SO23 8RY","county":"Hampshire","city":"Winchester","address1":"35 Jewry Street","type":"hobbyCentre","telephone":"01962 860199","seoUrl":"Warhammer-Winchester-UK","facebookId":"WHWinchester","twitterId":"GWWinchester"},{"id":"store-gb-900284","storeId":"CA","distance":58.77,"name":"Warhammer - Canterbury","latitude":51.27836,"longitude":1.08281,"country":"GB","postalCode":"CT1 2HN","county":"Kent","city":"Canterbury","address1":"Unit 5","address2":"Iron Bar Lane","type":"hobbyCentre","telephone":"01227 452880","seoUrl":"Warhammer-Canterbury","facebookId":"WarhammerCanterbury","twitterId":"GW_Canterbury"},{"id":"store-gb-2500158","storeId":"BR","distance":59.74,"name":"Warhammer - Banbury","latitude":52.0616619,"longitude":-1.3372727,"country":"GB","postalCode":"OX16 5LR","county":"Oxfordshire","city":"Banbury","address1":"1a Church Lane","type":"hobbyCentre","telephone":"01295 251078","seoUrl":"Warhammer-Banbury","facebookId":"WarhammerBanbury","twitterId":"GWBanbury"},{"id":"store-gb-5400016","storeId":"BS","distance":61.98,"name":"Warhammer - Bury St Edmunds","latitude":52.2472759,"longitude":0.7075161,"country":"GB","postalCode":"IP33 3AA","city":"Bury St Edmunds","address1":"100 Risbygate Street","type":"hobbyCentre","telephone":"01284 750745","seoUrl":"Warhammer-Bury-St-Edmunds","facebookId":"WarhammerBuryStEdmunds"},{"id":"store-gb-1000204","storeId":"K3","distance":62.72,"name":"Warhammer - Kettering","latitude":52.40048,"longitude":-0.72863,"country":"GB","postalCode":"NN16 8DH","county":"Northamptonshire","city":"Kettering","address1":"4 Lower Street","type":"hobbyCentre","telephone":"01536 411114","seoUrl":"Warhammer-Kettering","facebookId":"WarhammerKettering","twitterId":"GWKettering"},{"id":"store-gb-1000260","storeId":"P1","distance":64.38,"name":"Warhammer - Portsmouth","latitude":50.79957,"longitude":-1.08755,"country":"GB","postalCode":"PO1 1NL","county":"Hampshire","city":"Portsmouth","address1":"34 Arundel Street","type":"hobbyCentre","telephone":"02392 876 266","seoUrl":"Warhammer-Portsmouth","facebookId":"WarhammerPortsmouth"},{"id":"store-gb-1000198","storeId":"I1","distance":67.82,"name":"Warhammer - Ipswich","latitude":52.05894,"longitude":1.149419,"country":"GB","postalCode":"IP1 3DZ","county":"Suffolk","city":"Ipswich","address1":"63 Westgate Street","type":"hobbyCentre","telephone":"01473 210031","seoUrl":"Warhammer-Ipswich","facebookId":"WarhammerIpswich"},{"id":"store-gb-1000306","storeId":"SM","distance":67.86,"name":"Warhammer - Swindon","latitude":51.5607747,"longitude":-1.7885804,"country":"GB","postalCode":"SN1 1LF","county":"Wiltshire","city":"Swindon","address1":"22 The Plaza","address2":"The Brunel","type":"hobbyCentre","telephone":"01793 436036","seoUrl":"Warhammer-Swindon","facebookId":"WarhammerSwindon"},{"id":"store-gb-1000278","storeId":"S2","distance":68.37,"name":"Warhammer - Southampton","latitude":50.9019,"longitude":-1.4015,"country":"GB","postalCode":"SO14 3HG","county":"Hampshire","city":"Southampton","address1":"23 East Street","type":"hobbyCentre","telephone":"02380 331962","seoUrl":"Warhammer-Southampton","facebookId":"WarhammerSouthampton","twitterId":"GWSouthampton"},{"id":"store-gb-1000254","storeId":"P4","distance":70.51,"name":"Warhammer - Peterborough","latitude":52.57136,"longitude":-0.24349,"country":"GB","postalCode":"PE1 1DH","county":"Cambridgeshire","city":"Peterborough","address1":"3 Wentworth Street","type":"hobbyCentre","telephone":"01733 890052","seoUrl":"Warhammer-Peterborough","facebookId":"WarhammerPeterborough","twitterId":"GWPeterborough"},{"id":"store-gb-4000047","storeId":"I4","distance":75.44,"name":"Warhammer - Isle of Wight","latitude":50.698245,"longitude":-1.2951032,"country":"GB","postalCode":"PO30 1LG","county":"Isle of Wight","city":"Newport","address1":"35, St James Street","type":"hobbyCentre","telephone":"01983 522191","seoUrl":"Warhammer-Isle-of-Wight","facebookId":"WarhammerIsleofWight"},{"id":"store-gb-1000270","storeId":"SD","distance":76.11,"name":"Warhammer - Salisbury","latitude":51.06958,"longitude":-1.79396,"country":"GB","postalCode":"SP1 1HB","county":"Wiltshire","city":"Salisbury","address1":"1B Winchester Street","type":"hobbyCentre","telephone":"01722 330955","seoUrl":"Warhammer-Salisbury","facebookId":"WarhammerSalisbury","twitterId":"GW_Salisbury"},{"id":"store-gb-1000210","storeId":"L5","distance":76.25,"name":"Warhammer - Leamington Spa","latitude":52.29012,"longitude":-1.5379,"country":"GB","postalCode":"CV32 5EG","county":"Warwickshire","city":"Leamington Spa","address1":"32 Regent Street","type":"hobbyCentre","telephone":"01926 435 771","seoUrl":"Warhammer-Leamington-Spa","facebookId":"WarhammerLeamingtonSpa","twitterId":"GWLeamingtonSpa"},{"id":"store-gb-1000298","storeId":"SH","distance":77.91,"name":"Warhammer - Stratford","latitude":52.19339,"longitude":-1.70991,"country":"GB","postalCode":"CV37 6NL","county":"Warwickshire","city":"Stratford","address1":"Unit 1","address2":"27 Windsor Street","type":"hobbyCentre","telephone":"01789 297 262","seoUrl":"Warhammer-Stratford","facebookId":"WarhammerStratford"},{"id":"store-gb-1000152","storeId":"CM","distance":81.2,"name":"Warhammer - Coventry","latitude":52.409704,"longitude":-1.511802,"country":"GB","postalCode":"CV1 1FJ","county":"Warwickshire","city":"Coventry","address1":"13 Trinity Street","type":"hobbyCentre","telephone":"02476 227311","seoUrl":"Warhammer-Coventry","facebookId":"WarhammerCoventry"},{"id":"store-gb-900296","storeId":"C7","distance":83.4,"name":"Warhammer - Cheltenham","latitude":51.90138,"longitude":-2.07377,"country":"GB","postalCode":"GL52 2LJ","county":"Gloucestershire","city":"Cheltenham","address1":"16 Pittville Street","type":"hobbyCentre","telephone":"01242 228419","seoUrl":"Warhammer-Cheltenham","facebookId":"WarhammerCheltenham","twitterId":"GWCheltenham"},{"id":"store-gb-1000214","storeId":"L2","distance":84.6,"name":"Warhammer - Leicester","latitude":52.6353,"longitude":-1.1347,"country":"GB","postalCode":"LE1 5ET","county":"Leicestershire","city":"Leicester","address1":"Unit 2","address2":"16/20 Silver Street","type":"hobbyCentre","telephone":"0116 253 0510","seoUrl":"Warhammer-Leicester","facebookId":"WarhammerLeicester","twitterId":"GWLeicester"},{"id":"store-gb-1000250","storeId":"N6","distance":85.82,"name":"Warhammer - Nuneaton","latitude":52.52293,"longitude":-1.46638,"country":"GB","postalCode":"CV11 4DZ","county":"Warwickshire","city":"Nuneaton","address1":"3 Bridge Street","type":"hobbyCentre","telephone":"02476 325 754","seoUrl":"Warhammer-Nuneaton","facebookId":"WarhammerNuneaton","twitterId":"GWNuneaton"},{"id":"store-gb-1000206","storeId":"K5","distance":87.09,"name":"Warhammer - Kings Lynn","latitude":52.75528,"longitude":0.397934,"country":"GB","postalCode":"PE30 1AN","county":"Norfolk","city":"Kings Lynn","address1":"23 Norfolk Street","type":"hobbyCentre","telephone":"01553 777 920","seoUrl":"Warhammer-Kings-Lynn","facebookId":"WarhammerKingsLynn","twitterId":"GWKingsLynn"},{"id":"store-gb-1000276","storeId":"SA","distance":89.51,"name":"Warhammer - Solihull","latitude":52.41478,"longitude":-1.77665,"country":"GB","postalCode":"B91 3DX","county":"West Midlands","city":"Solihull","address1":"690 Warwick Road","type":"hobbyCentre","telephone":"0121 7057997","seoUrl":"Warhammer-Solihull","facebookId":"WarhammerSolihull","twitterId":"GWSolihull"},{"id":"store-gb-1000180","storeId":"G3","distance":89.71,"name":"Warhammer - Gloucester","latitude":51.86493,"longitude":-2.24197,"country":"GB","postalCode":"GL1 1EA","county":"Gloucestershire","city":"Gloucester","address1":"35 Clarence Street","type":"hobbyCentre","telephone":"01452 505 033","seoUrl":"Warhammer-Gloucester","facebookId":"/WarhammerGloucester/"},{"id":"store-gb-1000132","storeId":"B7","distance":92.6,"name":"Warhammer - Bournemouth","latitude":50.71986,"longitude":-1.88432,"country":"GB","postalCode":"BH2 5RT","county":"Dorset","city":"Bournemouth","address1":"85 Commercial Road","type":"hobbyCentre","telephone":"01202 319 292","seoUrl":"Warhammer-Bournemouth","facebookId":"GWBournemouth","twitterId":"GWBournemouth"},{"id":"store-gb-1000124","storeId":"B0","distance":93.4,"name":"Warhammer - Bath","latitude":51.37932,"longitude":-2.36111,"country":"GB","postalCode":"BA1 1UL","county":"Somerset","city":"Bath","address1":"15 St James Parade","type":"hobbyCentre","telephone":"01225 334044","seoUrl":"Warhammer-Bath","facebookId":"WarhammerBath","twitterId":"GWBath"},{"id":"store-gb-1000222","storeId":"LB","distance":94.43,"name":"Warhammer - Loughborough","latitude":52.77296,"longitude":-1.20678,"country":"GB","postalCode":"LE11 1UA","county":"Leicestershire","city":"Loughborough","address1":"29 Biggin Street","type":"hobbyCentre","telephone":"01509 238107","seoUrl":"Warhammer-Loughborough","facebookId":"WarhammerLoughborough","twitterId":"WarhammerLoughborough"},{"id":"store-gb-1000258","storeId":"P5","distance":96.14,"name":"Warhammer - Poole","latitude":50.71635,"longitude":-1.98314,"country":"GB","postalCode":"BH15 1ER","county":"Dorset","city":"Poole","address1":"Unit 12, Towngate Centre","address2":"Falkland Square","type":"hobbyCentre","telephone":"01202 685634","seoUrl":"Warhammer-Poole","facebookId":"WarhammerPoole","twitterId":"GWPoole"},{"id":"store-gb-1000128","storeId":"B2","distance":96.29,"name":"Warhammer - Birmingham","latitude":52.48198,"longitude":-1.89405,"country":"GB","postalCode":"B4 7LA","city":"Birmingham","address1":"36 Priory Queensway","type":"hobbyCentre","telephone":"0121 2334840","seoUrl":"Warhammer-Birmingham","facebookId":"WarhammerBirmingham","twitterId":"GWBirmingham"},{"id":"store-gb-1000340","storeId":"WR","distance":96.61,"name":"Warhammer - Worcester","latitude":52.1929016,"longitude":-2.2209288,"country":"GB","postalCode":"WR1 3LD","county":"Worcestershire","city":"Worcester","address1":"12 Chapel Walk","type":"hobbyCentre","telephone":"01905 616707","seoUrl":"Warhammer-Worcester","facebookId":"GWWorcester","twitterId":"GWWorcester"},{"id":"store-gb-1000246","storeId":"NR","distance":97.86,"name":"Warhammer - Norwich","latitude":52.625836,"longitude":1.2923477,"country":"GB","postalCode":"NR1 3LT","county":"Norfolk","city":"Norwich","address1":"15 Westlegate","type":"hobbyCentre","telephone":"01603 767656","seoUrl":"Warhammer-Norwich","facebookId":"WarhammerNorwich"},{"id":"store-gb-900272","storeId":"BL","distance":99.07,"name":"Warhammer - Boston","latitude":52.9802,"longitude":-0.01988,"country":"GB","postalCode":"PE21 6SH","county":"Lincolnshire","city":"Boston","address1":"45 Wide Bargate","type":"hobbyCentre","telephone":"01205 356596","seoUrl":"Warhammer-Boston","facebookId":"WarhammerBoston","twitterId":"GWBoston"},{"id":"store-gb-1000156","storeId":"CB","distance":102.57,"name":"Warhammer - Cribbs Causeway","latitude":51.52516,"longitude":-2.59536,"country":"GB","postalCode":"BS34 5UP","city":"Bristol","address1":"Unit 129, Upper Level","address2":"The Mall at Cribbs Causeway","type":"hobbyCentre","telephone":"0117 959 2520","seoUrl":"WarhammerCribbsCauseway","facebookId":"WarhammerCribbsCauseway","twitterId":"GWCribbs"},{"id":"store-gb-900276","storeId":"B4","distance":102.67,"name":"Warhammer - Bristol","latitude":51.45565,"longitude":-2.59118,"country":"GB","postalCode":"BS1 2BQ","city":"Bristol","address1":"33b Wine Street","type":"hobbyCentre","telephone":"0117 9251533","seoUrl":"Warhammer-Bristol","facebookId":"WarhammerBristol","twitterId":"GWBristol"},{"id":"store-gb-1000162","storeId":"D8","distance":103.37,"name":"Warhammer - Dudley","latitude":52.4811453,"longitude":-2.1130515,"country":"GB","postalCode":"DY5 1QX","county":"West Midlands","city":"Dudley","address1":"Unit L15b","address2":"Merry Hill Centre","type":"hobbyCentre","telephone":"01384 481818","seoUrl":"Warhammer-Dudley","facebookId":"WarhammerDudley","twitterId":"GW_Dudley"},{"id":"store-gb-1000322","storeId":"W5","distance":103.66,"name":"Warhammer - Walsall","latitude":52.58419,"longitude":-1.9786,"country":"GB","postalCode":"WS1 1QF","county":"Birmingham","city":"Walsall","address1":"Unit 26, Old Square Shopping Centre","type":"hobbyCentre","telephone":"01922 725207","seoUrl":"Warhammer-Walsall","facebookId":"GWWalsall","twitterId":"gwwalsall"},{"id":"store-gb-1000324","storeId":"L9","distance":104.4,"name":"Games Workshop - Warhammer World","latitude":52.94118,"longitude":-1.17569,"country":"GB","postalCode":"NG7 2WS","county":"Nottinghamshire","city":"Nottingham","address1":"Willow Road","address2":"Lenton","type":"hobbyCentre","telephone":"0115 900 4151","seoUrl":"Games-Workshop-Warhammer-World","facebookId":"GWWarhammerWorld","twitterId":"GW_WHWorld"},{"id":"store-gb-1000248","storeId":"N3","distance":104.71,"name":"Warhammer - Nottingham","latitude":52.9523,"longitude":-1.15193,"country":"GB","postalCode":"NG1 6DQ","county":"Nottinghamshire","city":"Nottingham","address1":"34A Friar Lane","type":"hobbyCentre","telephone":"0115 9480651","seoUrl":"Warhammer-Nottingham","facebookId":"WarhammerNottingham","twitterId":"GWNottingham"},{"id":"store-gb-1200009","storeId":"BH","distance":105.53,"name":"Warhammer - Burton-upon-Trent","latitude":52.8033494,"longitude":-1.6348743,"country":"GB","postalCode":"DE14 1AA","county":"Staffordshire","city":"Burton-Upon-Trent","address1":"Unit B, Union Court","address2":"Union Street","type":"hobbyCentre","telephone":"01283 535865","seoUrl":"Warhammer-Burton-upon-Trent","facebookId":"WarhammerBurton","twitterId":"GW_Burton"},{"id":"store-gb-1000338","storeId":"W3","distance":108.33,"name":"Warhammer - Wolverhampton","latitude":52.58535,"longitude":-2.1259,"country":"GB","postalCode":"WV1 1ST","city":"Wolverhampton","address1":"9 King Street","type":"hobbyCentre","telephone":"01902 310 466","seoUrl":"Warhammer-Wolverhampton","facebookId":"WarhammerWolverhampton"},{"id":"store-gb-900304","storeId":"D1","distance":108.99,"name":"Warhammer - Derby","latitude":52.9232,"longitude":-1.47974,"country":"GB","postalCode":"DE1 3NR","county":"Derbyshire","city":"Derby","address1":"42 Sadler Gate","type":"hobbyCentre","telephone":"01332 371657","seoUrl":"Warhammer-Derby","facebookId":"WHDerby"},{"id":"store-gb-1000190","storeId":"H8","distance":112.78,"name":"Warhammer - Hereford","latitude":52.05635,"longitude":-2.71896,"country":"GB","postalCode":"HR4 0AB","county":"Herefordshire","city":"Hereford","address1":"40 Eign Gate","type":"hobbyCentre","telephone":"01432 355 040","seoUrl":"Warhammer-Hereford","facebookId":"WarhammerHereford","twitterId":"GWHereford"},{"id":"store-gb-1000216","storeId":"L7","distance":116.77,"name":"Warhammer - Lincoln","latitude":53.22896,"longitude":-0.53979,"country":"GB","postalCode":"LN2 1DH","county":"Lincolnshire","city":"Lincoln","address1":"Unit SUA, Waterside Centre","type":"hobbyCentre","telephone":"01522 548027","seoUrl":"Warhammer-Lincoln","facebookId":"WarhammerLincoln","twitterId":"GWLincoln"},{"id":"store-gb-900300","storeId":"CD","distance":120.93,"name":"Warhammer - Cwmbran","latitude":51.65363,"longitude":-3.02202,"country":"GB","postalCode":"NP44 1PT","county":"Wales","city":"Cwmbran","address1":"30 The Parade","type":"hobbyCentre","telephone":"01633 874 070","seoUrl":"Warhammer-Cwmbran","facebookId":"WarhammerCwmbran","twitterId":"GWCwmbran"},{"id":"store-gb-1000148","storeId":"CE","distance":127.26,"name":"Warhammer - Chesterfield","latitude":53.2362,"longitude":-1.42718,"country":"GB","postalCode":"S40 1RL","county":"Derbyshire","city":"Chesterfield","address1":"21 Knifesmithgate","type":"hobbyCentre","telephone":"01246 271118","seoUrl":"Warhammer-Chesterfield","facebookId":"WarhammerChesterfield","twitterId":"GWChesterfield"},{"id":"store-gb-900288","storeId":"CL","distance":127.94,"name":"Warhammer - Cardiff","latitude":51.4803757,"longitude":-3.1823947,"country":"GB","postalCode":"CF10 1PT","county":"Wales","city":"Cardiff","address1":"20 High Street","type":"hobbyCentre","telephone":"02920 644917","seoUrl":"Warhammer-Cardiff","facebookId":"WarhammerCardiff"},{"id":"store-gb-3000012","storeId":"T8","distance":130.28,"name":"Warhammer - Taunton","latitude":51.014649,"longitude":-3.099174,"country":"GB","postalCode":"TA1 3TZ","city":"Taunton","address1":"Unit 9 - County Walk Shopping Centre","address2":"East Street","type":"hobbyCentre","telephone":"01823 279205","seoUrl":"Warhammer-Taunton","facebookId":"WarhammerTaunton","twitterId":"GWTaunton"},{"id":"store-gb-1000296","storeId":"H2","distance":131.46,"name":"Warhammer - Stoke","latitude":53.02501,"longitude":-2.17584,"country":"GB","postalCode":"ST1 1JU","county":"Staffordshire","city":"Stoke on Trent","address1":"27 Stafford Street","address2":"Hanley","type":"hobbyCentre","telephone":"01782 205287","seoUrl":"Warhammer-Stoke","facebookId":"WarhammerStoke"},{"id":"store-gb-1000274","storeId":"SQ","distance":134.34,"name":"Warhammer - Shrewsbury","latitude":52.7073866,"longitude":-2.7553618,"country":"GB","postalCode":"SY1 1LE","county":"Shropshire","city":"Shrewsbury","address1":"3 Market Street","type":"hobbyCentre","telephone":"01743 362 007","seoUrl":"Warhammer-Shrewsbury","facebookId":"WarhammerShrewsbury","twitterId":"GWShrewsbury"},{"id":"store-gb-1000272","storeId":"S1","distance":136.87,"name":"Warhammer - Sheffield (Central)","latitude":53.37546,"longitude":-1.47539,"country":"GB","postalCode":"S1 4JH","county":"South Yorkshire","city":"Sheffield","address1":"16 Fitzwilliam Gate","type":"hobbyCentre","telephone":"01142 750114","seoUrl":"Warhammer-Sheffield-Central","facebookId":"WarhammerSheffield","twitterId":"GWSheffield"},{"id":"store-gb-1000268","storeId":"R5","distance":138.57,"name":"Warhammer - Rotherham","latitude":53.4305613,"longitude":-1.3580674,"country":"GB","postalCode":"S60 1PP","county":"Sheffield","city":"Rotherham","address1":"16a High Street","type":"hobbyCentre","telephone":"01709 374520","seoUrl":"Warhammer-Rotherham","facebookId":"WarhammerRotherham"},{"id":"store-gb-1000182","storeId":"G4","distance":139.24,"name":"Warhammer - Grimsby","latitude":53.56478,"longitude":-0.08683,"country":"GB","postalCode":"DN31 1LB","county":"Lincolnshire","city":"Grimsby","address1":"9 West St Mary\u0027s Gate","type":"hobbyCentre","telephone":"01472 347 757","seoUrl":"Warhammer-Grimsby","facebookId":"WarhammerGrimsby","twitterId":"GWGrimsby"},{"id":"store-gb-1000160","storeId":"D4","distance":141.67,"name":"Warhammer - Doncaster","latitude":53.52292,"longitude":-1.13281,"country":"GB","postalCode":"DN1 1DW","county":"South Yorkshire","city":"Doncaster","address1":"26 High Street","type":"hobbyCentre","telephone":"0130 232 0535","seoUrl":"Warhammer-Doncaster","facebookId":"WarhammerDoncaster","twitterId":"GWDoncaster"},{"id":"store-gb-1000154","storeId":"CF","distance":142.44,"name":"Warhammer - Crewe","latitude":53.0966,"longitude":-2.44144,"country":"GB","postalCode":"CW1 2EG","county":"Cheshire","city":"Crewe","address1":"8 Market Street","type":"hobbyCentre","telephone":"01270 216903","seoUrl":"Warhammer-Crewe","facebookId":"WarhammerCrewe","twitterId":"GWCrewe"},{"id":"store-gb-900236","storeId":"H1","distance":142.73,"name":"Warhammer - Le Havre","latitude":49.49554,"longitude":0.112819,"country":"FR","postalCode":"76600","city":"Le Havre","address1":"44, Rue du Maréchal Galliéni","type":"hobbyCentre","telephone":"02 35 41 51 50","seoUrl":"Warhammer-Le-Havre","facebookId":"WarhammerLeHavre"},{"id":"store-gb-1000194","storeId":"H4","distance":151.64,"name":"Warhammer - Hull","latitude":53.74421,"longitude":-0.34073,"country":"GB","postalCode":"HU1 3ND","county":"East Yorkshire","city":"Hull","address1":"30 Paragon Street","type":"hobbyCentre","telephone":"01482 589576","seoUrl":"Warhammer-Hull","facebookId":"WarhammerHull","twitterId":"GWHull"},{"id":"store-gb-1000294","storeId":"SP","distance":152.49,"name":"Warhammer - Stockport","latitude":53.4112663,"longitude":-2.1591048,"country":"GB","postalCode":"SK1 1PP","county":"Cheshire","city":"Stockport","address1":"16 Deanery Way","address2":"Mersey Shopping Centre","type":"hobbyCentre","telephone":"0161 474 1443","seoUrl":"Warhammer-Stockport","facebookId":"WarhammerStockport","twitterId":"GWStockport"},{"id":"store-gb-1000174","storeId":"E9","distance":155.03,"name":"Warhammer - Exeter","latitude":50.7216,"longitude":-3.53175,"country":"GB","postalCode":"EX1 1EQ","city":"Exeter","address1":"85 South Street","type":"hobbyCentre","telephone":"01392 490305","seoUrl":"Warhammer-Exeter","facebookId":"GWExeter","twitterId":"GWExeter"},{"id":"store-gb-900222","storeId":"L2","distance":155.29,"name":"Warhammer - Lille","latitude":50.63599,"longitude":3.059866,"country":"FR","postalCode":"59800","city":"Lille","address1":"78, Rue Nationale","type":"hobbyCentre","telephone":"03 20 31 69 89","seoUrl":"Warhammer-Lille","facebookId":"WarhammerLille"},{"id":"store-gb-1000118","storeId":"A6","distance":155.53,"name":"Warhammer - Altrincham","latitude":53.3850466,"longitude":-2.3516146,"country":"GB","postalCode":"WA14 2RQ","county":"Cheshire","city":"Altrincham","address1":"49 Railway Street","type":"hobbyCentre","telephone":"0161 9299896","seoUrl":"Warhammer-Altrincham","facebookId":"WarhammerAltrincham","twitterId":"GWAltrincham"},{"id":"store-gb-1000320","storeId":"WF","distance":156.77,"name":"Warhammer - Wakefield","latitude":53.6815871,"longitude":-1.4941161,"country":"GB","postalCode":"WF1 1JY","county":"West Yorkshire","city":"Wakefield","address1":"24-26 Little Westgate","type":"hobbyCentre","telephone":"01924 375187","seoUrl":"Warhammer-Wakefield","facebookId":"WarhammerWakefield","twitterId":"WarhammerWakefield"},{"id":"store-gb-900190","storeId":"R2","distance":156.84,"name":"Warhammer - Rouen","latitude":49.43888,"longitude":1.097871,"country":"FR","postalCode":"76000","city":"Rouen","address1":"23, Rue Alsace Lorraine","type":"hobbyCentre","telephone":"+33 2 35 70 12 08","seoUrl":"Warhammer-Rouen","facebookId":"GWRouen","twitterId":"GWRouen"},{"id":"store-gb-900270","storeId":"A2","distance":158.52,"name":"Warhammer - Amiens","latitude":49.89449,"longitude":2.29865,"country":"FR","postalCode":"80000","city":"Amiens","address1":"2 rue des lombards","type":"hobbyCentre","telephone":"03 22 91 01 95","seoUrl":"Warhammer-Amiens","facebookId":"WarhammerAmiens","twitterId":"GWAmiens"},{"id":"store-gb-1000230","storeId":"MN","distance":158.56,"name":"Warhammer - Manchester","latitude":53.4834527,"longitude":-2.2434673,"country":"GB","postalCode":"M4 3AG","city":"Manchester","address1":"15A Corporation Street","type":"hobbyCentre","telephone":"0161 834 6871","seoUrl":"Warhammer-Manchester","facebookId":"WarhammerManchester","twitterId":"GW_Manchester"},{"id":"store-gb-5300040","storeId":"HA","distance":159.2,"name":"Warhammer - Huddersfield","latitude":53.6465836,"longitude":-1.7864314,"country":"GB","postalCode":"HD1 2EH","city":"Huddersfield","address1":"9 Market Street","type":"hobbyCentre","telephone":"01484430802","seoUrl":"Warhammer-Huddersfield","facebookId":"WarhammerHuddersfield"},{"id":"store-gb-1000146","storeId":"C2","distance":160.12,"name":"Warhammer - Chester","latitude":53.18981,"longitude":-2.89322,"country":"GB","postalCode":"CH1 2LB","county":"Cheshire","city":"Chester","address1":"57 Watergate Street","type":"hobbyCentre","telephone":"01244 311967","seoUrl":"Warhammer-Chester","facebookId":"WarhammerChester","twitterId":"GWChester"},{"id":"store-gb-1000304","storeId":"S0","distance":160.46,"name":"Warhammer - Swansea","latitude":51.62078,"longitude":-3.94512,"country":"GB","postalCode":"SA1 5HQ","county":"Wales","city":"Swansea","address1":"53 Kingsway","type":"hobbyCentre","telephone":"01792 463969","seoUrl":"Warhammer-Swansea","facebookId":"WarhammerSwansea"},{"id":"store-gb-1000326","storeId":"WE","distance":161.9,"name":"Warhammer - Warrington","latitude":53.388727058762,"longitude":-2.5958113838013,"country":"GB","postalCode":"WA1 1XG","county":"Merseyside","city":"Warrington","address1":"33 Sankey Street","type":"hobbyCentre","telephone":"01925 651984","seoUrl":"Warhammer-Warrington","facebookId":"WarhammerWarrington","twitterId":"GWWarrington"},{"id":"store-gb-900226","storeId":"C1","distance":163.72,"name":"Warhammer - Caen","latitude":49.18373,"longitude":-0.36586,"country":"FR","postalCode":"14000","city":"Caen","address1":"22 Bis, Rue Froide","type":"hobbyCentre","telephone":"02 31 85 13 17","seoUrl":"Warhammer-Caen","facebookId":"WarhammerCaen","twitterId":"GWCaen"},{"id":"store-gb-1000212","storeId":"L1","distance":164.85,"name":"Warhammer - Leeds (Central)","latitude":53.79582,"longitude":-1.54238,"country":"GB","postalCode":"LS1 6LY","county":"West Yorkshire","city":"Leeds","address1":"155 Briggate","type":"hobbyCentre","telephone":"0113 242 0834","seoUrl":"Warhammer-Leeds-Central","facebookId":"WarhammerLeeds","twitterId":"GWLeeds"},{"id":"store-gb-1000140","storeId":"BK","distance":166.12,"name":"Warhammer - Bury","latitude":53.59335,"longitude":-2.29664,"country":"GB","postalCode":"BL9 0AD","county":"Lancashire","city":"Bury","address1":"16 Crompton Street","type":"hobbyCentre","telephone":"0161 797 6540","seoUrl":"Warhammer-Bury","facebookId":"WarhammerBury","twitterId":"GWBury"},{"id":"store-gb-1000134","storeId":"BA","distance":168.0,"name":"Warhammer - Bradford","latitude":53.79515,"longitude":-1.75286,"country":"GB","postalCode":"BD1 3LW","county":"West Yorkshire","city":"Bradford","address1":"4 Picadilly","type":"hobbyCentre","telephone":"01274 739430","seoUrl":"Warhammer-Bradford","facebookId":"WarhammerBradford","twitterId":"GWBradford"},{"id":"store-gb-900268","storeId":"B8","distance":168.28,"name":"Warhammer - Bolton","latitude":53.57925,"longitude":-2.42758,"country":"GB","postalCode":"BL1 2EH","county":"Lancashire","city":"Bolton","address1":"32 Bridge Street","type":"hobbyCentre","telephone":"01204 391137","seoUrl":"Warhammer-Bolton","facebookId":"WarhammerBolton","twitterId":"GWBolton"},{"id":"store-gb-1000122","storeId":"BJ","distance":169.31,"name":"Warhammer - Barnstaple","latitude":51.07966,"longitude":-4.05655,"country":"GB","postalCode":"EX32 8HJ","county":"Devon","city":"Barnstaple","address1":"8 Queens House","address2":"Queen Street","type":"hobbyCentre","telephone":"01271 859 115","seoUrl":"Warhammer-Barnstaple","facebookId":"WarhammerBarnstapleOfficial","twitterId":"GWBarnstaple"},{"id":"store-gb-1000116","storeId":"Y1","distance":170.46,"name":"Warhammer - York","latitude":53.96042,"longitude":-1.0852,"country":"GB","postalCode":"YO1 8AQ","county":"North Yorkshire","city":"York","address1":"13a Lendal","type":"hobbyCentre","telephone":"01904 628014","seoUrl":"Warhammer-York","facebookId":"WarhammerYork","twitterId":"GWYork"},{"id":"store-gb-1000330","storeId":"WC","distance":171.41,"name":"Warhammer - Wigan","latitude":53.54803,"longitude":-2.63022,"country":"GB","postalCode":"WN1 1YP","county":"Lancashire","city":"Wigan","address1":"12 Crompton Street","type":"hobbyCentre","telephone":"01942 829121","seoUrl":"Warhammer-Wigan","facebookId":"WarhammerWigan","twitterId":"GWWigan"},{"id":"store-gb-1000218","storeId":"L3","distance":173.21,"name":"Warhammer - Liverpool","latitude":53.40503,"longitude":-2.97991,"country":"GB","postalCode":"L1 1QE","county":"Merseyside","city":"Liverpool","address1":"13b Central Shopping Centre","address2":"Ranelagh Street","type":"hobbyCentre","telephone":"0151 703 0963","seoUrl":"Warhammer-Liverpool","facebookId":"WarhammerLiverpool","twitterId":"GWLiverpool"},{"id":"store-gb-1000430","storeId":"ZG","distance":173.3,"name":"Warhammer - Gent","latitude":51.05314,"longitude":3.723203,"country":"BE","postalCode":"9000","city":"Gent","address1":"St. Niklaasstraat 17a/19","type":"hobbyCentre","telephone":"092 239120","seoUrl":"Warhammer-Gent","facebookId":"WarhammerGent","twitterId":"GW_Gent"},{"id":"store-gb-900292","storeId":"CG","distance":176.69,"name":"Warhammer - Carmarthen","latitude":51.85543,"longitude":-4.30626,"country":"GB","postalCode":"SA31 3JS","county":"Wales","city":"Carmarthen","address1":"19 Bridge Street","type":"hobbyCentre","telephone":"01267 231209","seoUrl":"Warhammer-Carmarthen","facebookId":"WarhammerCarmarthen","twitterId":"GWCarmarthen"},{"id":"store-gb-1000186","storeId":"HG","distance":177.57,"name":"Warhammer - Harrogate","latitude":53.9917678,"longitude":-1.5392226,"country":"GB","postalCode":"HG1 1SS","county":"North Yorkshire","city":"Harrogate","address1":"5 Station Bridge","type":"hobbyCentre","telephone":"01423 564310","seoUrl":"Warhammer-Harrogate","facebookId":"WarhammerHarrogate"},{"id":"store-gb-1000112","storeId":"P9","distance":184.96,"name":"Warhammer - Preston","latitude":53.7589102,"longitude":-2.7052091,"country":"GB","postalCode":"PR1 2NN","county":"Lancashire","city":"Preston","address1":"46 Lune Street","type":"hobbyCentre","telephone":"01772 821855","seoUrl":"Warhammer-Preston","facebookId":"WarhammerPreston"},{"id":"store-gb-1000256","storeId":"P3","distance":189.61,"name":"Warhammer - Plymouth","latitude":50.37245,"longitude":-4.14433,"country":"GB","postalCode":"PL1 1LR","county":"Devon","city":"Plymouth","address1":"84 Cornwall Street","type":"hobbyCentre","telephone":"01752 254121","seoUrl":"Warhammer-Plymouth","facebookId":"WHPlymouth"},{"id":"store-gb-1000482","storeId":"ZE","distance":196.32,"name":"Warhammer - Den Haag","latitude":52.07666,"longitude":4.308298,"country":"NL","postalCode":"2511 AX","city":"Den Haag","address1":"Schoolstraat 12B","type":"hobbyCentre","telephone":"070 3927836","seoUrl":"Warhammer-Den-Haag","facebookId":"WHDenHaag","twitterId":"GWDenHaag"},{"id":"store-gb-1000130","storeId":"B9","distance":196.78,"name":"Warhammer - Blackpool","latitude":53.81831,"longitude":-3.05318,"country":"GB","postalCode":"FY1 1DU","county":"Lancashire","city":"Blackpool","address1":"8 Birley Street","type":"hobbyCentre","telephone":"01253 752056","seoUrl":"Warhammer-Blackpool","facebookId":"WarhammerBlackpool","twitterId":"GWBlackpool"},{"id":"store-gb-1000422","storeId":"ZM","distance":200.18,"name":"Warhammer - Antwerpen","latitude":51.21986,"longitude":4.403501,"country":"BE","postalCode":"2000","city":"Antwerpen","address1":"Vleminckstraat 10","type":"hobbyCentre","telephone":"034 858627","seoUrl":"Warhammer-Antwerpen","facebookId":"WarhammerAntwerpen","twitterId":"GWAntwerpen"},{"id":"store-gb-1000476","storeId":"ZB","distance":202.05,"name":"Games Workshop - Rotterdam","latitude":51.91935,"longitude":4.475891,"country":"NL","postalCode":"3012 AP","city":"Rotterdam","address1":"452 Van Oldenbarneveltplaats","type":"hobbyCentre","telephone":"010 2800268","seoUrl":"Games-Workshop-Rotterdam","facebookId":"GWRotterdam","twitterId":"GWRotterdam"},{"id":"store-gb-1000426","storeId":"B2","distance":203.26,"name":"Warhammer - Bruxelles","latitude":50.84627,"longitude":4.349506,"country":"BE","postalCode":"B1000","city":"Bruxelles","address1":"10 Rue du Lombard","type":"hobbyCentre","telephone":"02 223 06 61","seoUrl":"Warhammer-Bruxelles","facebookId":"WarhammerBruxelles","twitterId":"GWBruxelles"},{"id":"store-gb-900302","storeId":"D5","distance":212.98,"name":"Warhammer - Darlington","latitude":54.525,"longitude":-1.55756,"country":"GB","postalCode":"DL3 7LX","county":"County Durham","city":"Darlington","address1":"78 Skinnergate","type":"hobbyCentre","telephone":"01325 382463","seoUrl":"Warhammer-Darlington","facebookId":"WHDarlington","twitterId":"GWDarlington"},{"id":"store-gb-1000234","storeId":"M4","distance":213.44,"name":"Warhammer - Middlesbrough","latitude":54.57799,"longitude":-1.23537,"country":"GB","postalCode":"TS1 1HR","county":"Cleveland","city":"Middlesbrough","address1":"Unit 33","address2":"39 Dundas Street","type":"hobbyCentre","telephone":"01642 254091","seoUrl":"Warhammer-Middlesbrough","facebookId":"WarhammerMiddlesbrough","twitterId":"GWMiddlesbrough"},{"id":"store-gb-1000490","storeId":"ZJ","distance":214.01,"name":"Warhammer - Breda","latitude":51.58891,"longitude":4.774592,"country":"NL","postalCode":"4811 XV","city":"Breda","address1":"Torenstraat 21","type":"hobbyCentre","telephone":"076 5229277","seoUrl":"Warhammer-Breda","facebookId":"WarhammerBreda","twitterId":"GWBreda"},{"id":"store-gb-1500024","storeId":"PA","distance":216.35,"name":"Warhammer - Paris 09","latitude":48.8770639,"longitude":2.3378379,"country":"FR","postalCode":"75009","city":"Paris","address1":"125 rue du Faubourg Poissonnière","type":"hobbyCentre","telephone":"+33 (0)1 87 03 92 21","seoUrl":"Warhammer-Paris-09","facebookId":"WarhammerParis09"},{"id":"store-gb-900200","storeId":"V1","distance":216.35,"name":"Warhammer - Versailles","latitude":48.80074,"longitude":2.128687,"country":"FR","postalCode":"78000","city":"Versailles","address1":"10 Avenue du Général de Gaulle","type":"hobbyCentre","telephone":"01 39 20 92 81","seoUrl":"Warhammer-Versailles","facebookId":"WarhammerVersailles","twitterId":"GWVersailles"},{"id":"store-gb-900198","storeId":"B3","distance":216.81,"name":"Warhammer Boulogne-Billancourt","latitude":48.83262,"longitude":2.239755,"country":"FR","postalCode":"92100","city":"Boulogne Billancourt","address1":"40 Avenue du Général Leclerc","type":"hobbyCentre","telephone":"01 41 03 90 55","seoUrl":"Warhammer-Boulogne-Billancourt","facebookId":"WarhammerBoulogne"},{"id":"store-gb-12400010","storeId":"F32PC","distance":217.47,"name":"Warhammer - Paris 01","latitude":48.8616284,"longitude":2.3463308,"country":"FR","postalCode":"75001 ","city":"Paris","address1":"10 Rue de la Cossonnerie","type":"hobbyCentre","telephone":"+33 1 42 36 94 22","seoUrl":"Warhammer-Paris-01","facebookId":"WarhammerParis08"},{"id":"store-gb-900294","storeId":"P7","distance":217.59,"name":"Warhammer - Paris 15e","latitude":48.84132,"longitude":2.298567,"country":"FR","postalCode":"75015","city":"Paris","address1":"161 Rue Lecourbe","type":"hobbyCentre","telephone":"01 48 56 23 98","seoUrl":"Warhammer-Paris-15e","facebookId":"WarhammerParis15","twitterId":"GWParis15"},{"id":"store-gb-900250","storeId":"P1","distance":217.95,"name":"Warhammer - Paris 06","latitude":48.8521,"longitude":2.342624,"country":"FR","postalCode":"75006","city":"Paris 6e","address1":"10 Rue Hautefeuille","type":"hobbyCentre","telephone":"01 46 33 20 01","seoUrl":"Warhammer-Paris-06","facebookId":"WarhammerParis06","twitterId":"GWParis06"},{"id":"store-gb-900254","storeId":"P4","distance":219.03,"name":"Warhammer - Paris 12","latitude":48.84685,"longitude":2.376242,"country":"FR","postalCode":"75012","city":"Paris 12e","address1":"38 Avenue Daumesnil","type":"hobbyCentre","telephone":"01 53 44 71 82","seoUrl":"Warhammer-Paris-12","facebookId":"WarhammerParis12","twitterId":"GWParis12"},{"id":"store-gb-1000200","storeId":"K4","distance":219.1,"name":"Warhammer - Kendal","latitude":54.3293271,"longitude":-2.746483,"country":"GB","postalCode":"LA9 4LU","county":"Cumbria","city":"Kendal","address1":"Units 4 \u0026 5 Blackhall Yard","type":"hobbyCentre","telephone":"01539 722211","seoUrl":"Warhammer-Kendal","facebookId":"WarhammerKendal","twitterId":"GWKendal"},{"id":"store-gb-900196","storeId":"P2","distance":219.2,"name":"Warhammer - Paris 14e","latitude":48.82426,"longitude":2.324264,"country":"FR","postalCode":"75014","city":"Paris 14e","address1":"13, Rue Poirier de Narçay","type":"hobbyCentre","telephone":"01 45 45 72 03","seoUrl":"Warhammer-Paris-14e","facebookId":"WarhammerParis14","twitterId":"GWParis14"},{"id":"store-gb-1000484","storeId":"ZN","distance":223.3,"name":"Warhammer - Alkmaar","latitude":52.62916,"longitude":4.750787,"country":"NL","postalCode":"1811EK","city":"Alkmaar","address1":"Laat 68","type":"hobbyCentre","telephone":"072 5122880","seoUrl":"Warhammer-Alkmaar","facebookId":"WarhammerAlkmaar","twitterId":"GWAlkmaar"},{"id":"store-gb-1000488","storeId":"ZT","distance":223.92,"name":"Warhammer - Amsterdam West","latitude":52.37296,"longitude":4.879639,"country":"NL","postalCode":"1016 LT","city":"Amsterdam","address1":"Rozengracht 99","type":"hobbyCentre","telephone":"31 206 232 800","seoUrl":"Warhammer-Amsterdam-West","facebookId":"WarhammerAmsterdamWest","twitterId":"GWAmsterdamWest"},{"id":"store-gb-1000494","storeId":"ZU","distance":224.54,"name":"Warhammer - Amsterdam South","latitude":52.35527,"longitude":4.900993,"country":"NL","postalCode":"1074 AD","city":"Amsterdam","address1":"Van Woustraat 69-hs","type":"hobbyCentre","telephone":"0206645771","seoUrl":"Warhammer-Amsterdam-South","facebookId":"WarhammerAmsterdamSouth","twitterId":"GWAmsterdamSth"},{"id":"store-gb-3200020","storeId":"ZV","distance":227.08,"name":"Warhammer - Tilburg","latitude":51.5522179,"longitude":5.0772665,"country":"NL","postalCode":"5025 JJ","city":"Tilburg","address1":"Korvelseweg 58","type":"hobbyCentre","telephone":"0031 13 5433735","seoUrl":"Warhammer-Tilburg","facebookId":"WarhammerTilburg"},{"id":"store-gb-1000312","storeId":"T2","distance":228.82,"name":"Warhammer - Truro","latitude":50.26372,"longitude":-5.04904,"country":"GB","postalCode":"TR1 2AA","county":"Cornwall","city":"Truro","address1":"Unit 1 Bridge House","address2":"New Bridge Street","type":"hobbyCentre","telephone":"01872 320047","seoUrl":"Warhammer-Truro","facebookId":"WarhammerTruro","twitterId":"GWTruro"},{"id":"store-gb-1000166","storeId":"D7","distance":230.05,"name":"Warhammer - Durham","latitude":54.77732,"longitude":-1.58121,"country":"GB","postalCode":"DH1 4SQ","county":"County Durham","city":"Durham","address1":"64 North Road","type":"hobbyCentre","telephone":"0191 3741062","seoUrl":"Warhammer-Durham","facebookId":"WarhammerDurham","twitterId":"GW_Durham"},{"id":"store-gb-4600056","storeId":"Z3","distance":230.44,"name":"Warhammer - Utrecht","latitude":52.0926626,"longitude":5.1161405,"country":"NL","postalCode":"3511 AA","city":"Utrecht","address1":"Zakkendragersteeg 7","type":"hobbyCentre","telephone":"00 31 30 231 8887","seoUrl":"Warhammer-Utrecht","facebookId":"WarhammerUtrecht"},{"id":"store-gb-1000424","storeId":"N4","distance":232.96,"name":"Warhammer - Namur","latitude":50.46591,"longitude":4.865485,"country":"BE","postalCode":"B5000","city":"Namur","address1":"34, Rue de Fer","type":"hobbyCentre","telephone":"081 65 98 65","seoUrl":"Warhammer-Namur","facebookId":"WarhammerNamur","twitterId":"GWNamur"},{"id":"store-gb-1000300","storeId":"SC","distance":236.94,"name":"Warhammer - Sunderland","latitude":54.90721,"longitude":-1.38564,"country":"GB","postalCode":"SR1 3DH","county":"Tyne and Wear","city":"Sunderland","address1":"253B High Street","type":"hobbyCentre","telephone":"01915 100 434","seoUrl":"Warhammer-Sunderland","facebookId":"WarhammerSunderland","twitterId":"GWSunderland"},{"id":"store-gb-1000480","storeId":"ZR","distance":242.45,"name":"Warhammer - Amersfoort","latitude":52.15358,"longitude":5.388646,"country":"NL","postalCode":"3811","city":"Amersfoort","address1":"20 Koestraat","type":"hobbyCentre","telephone":"033 465 4423","seoUrl":"Warhammer-Amersfoort","facebookId":"WarhammerAmersfoort","twitterId":"GWAmersfoort"},{"id":"store-gb-1000232","storeId":"MA","distance":242.98,"name":"Warhammer - Metro Centre","latitude":54.95766358193,"longitude":-1.6685383608603,"country":"GB","postalCode":"NE11 9YG","county":"Tyne and Wear","city":"Gateshead","address1":"Metro Centre","address2":"23 The Boulevard ","type":"hobbyCentre","telephone":"0191 4610950","seoUrl":"Warhammer-Metro-Centre","facebookId":"WarhammerMetroCentre","twitterId":"gwmetro"},{"id":"store-gb-1000242","storeId":"N9","distance":243.47,"name":"Warhammer - Newcastle","latitude":54.9735132,"longitude":-1.6118037,"country":"GB","postalCode":"NE1 6JQ","county":"Tyne and Wear","city":"Newcastle","address1":"8 Hood Street","type":"hobbyCentre","telephone":"0191 2322418","seoUrl":"Warhammer-Newcastle","facebookId":"WarhammerNewcastle","twitterId":"GWNewcastle"},{"id":"store-gb-1000284","storeId":"SK","distance":243.47,"name":"Warhammer - South Shields","latitude":54.99806,"longitude":-1.43145,"country":"GB","postalCode":"NE33 2LR","county":"Tyne and Wear","city":"South Shields","address1":"17 Denmark Centre","type":"hobbyCentre","telephone":"01914 276798","seoUrl":"Warhammer-South-Shields","facebookId":"WarhammerSouthShields","twitterId":"GWSouthShields"},{"id":"store-gb-1000492","storeId":"ZF","distance":244.57,"name":"Warhammer - Eindhoven","latitude":51.43634,"longitude":5.474468,"country":"NL","postalCode":"5611JV","city":"Eindhoven","address1":"Kleine Berg 50","type":"hobbyCentre","telephone":"040 2443448","seoUrl":"Warhammer-Eindhoven","facebookId":"WarhammerEindhoven","twitterId":"GWEindhoven"},{"id":"store-gb-900234","storeId":"R3","distance":245.15,"name":"Warhammer - Reims","latitude":49.25781,"longitude":4.040396,"country":"FR","postalCode":"51100","city":"Reims","address1":"10 Avenue Jean Jaurès","type":"hobbyCentre","telephone":"03 26 35 57 67","seoUrl":"Warhammer-Reims","facebookId":"WarhammerReims","twitterId":"GWReims"},{"id":"store-gb-900202","storeId":"R1","distance":246.53,"name":"Warhammer - Rennes","latitude":48.11102,"longitude":-1.6774,"country":"FR","postalCode":"35000","city":"Rennes","address1":"3, Rue du Vau Saint Germain","type":"hobbyCentre","telephone":"02 99 79 11 80","seoUrl":"Warhammer-Rennes","facebookId":"WarhammerRennes","twitterId":"GWRennes"},{"id":"store-gb-1000142","storeId":"C0","distance":256.89,"name":"Warhammer - Carlisle","latitude":54.89316,"longitude":-2.93191,"country":"GB","postalCode":"CA3 8DG","county":"Cumbria","city":"Carlisle","address1":"Unit 2","address2":"Earls Lane","type":"hobbyCentre","telephone":"01228 598216","seoUrl":"Warhammer-Carlisle","facebookId":"WarhammerCarlisle","twitterId":"GW_Carlisle"},{"id":"store-gb-1000428","storeId":"L3","distance":258.59,"name":"Warhammer - Liège","latitude":50.64264,"longitude":5.573787,"country":"BE","postalCode":"B4000","city":"Liège","address1":"27 Rue de la Régence","type":"hobbyCentre","telephone":"04 223 32 93","seoUrl":"Warhammer-Liège","facebookId":"WarhammerLiege","twitterId":"GWliege"},{"id":"store-gb-900188","storeId":"O1","distance":269.18,"name":"Warhammer - Orléans","latitude":47.90161,"longitude":1.901132,"country":"FR","postalCode":"45000","city":"Orléans","address1":"12 rue des Carmes","type":"hobbyCentre","telephone":"02 38 62 80 12","seoUrl":"Warhammer-Orléans","facebookId":"WarhammerOrleans","twitterId":"GWOrleans"},{"id":"store-gb-4000012","storeId":"ZY","distance":275.92,"name":"Warhammer - Zwolle","latitude":52.5116301,"longitude":6.0934905,"country":"NL","postalCode":"8011 PA","city":"Zwolle","address1":"Sassenstraat 15","type":"hobbyCentre","telephone":"(0031) 0384218026","seoUrl":"Warhammer-Zwolle","facebookId":"WarhammerZwolle"},{"id":"store-gb-900108","storeId":"GWA3","distance":277.97,"name":"Warhammer - Aachen","latitude":50.7728403,"longitude":6.0868732,"country":"DE","postalCode":"52062","city":"Aachen","address1":"Wirichsbongardstrasse 39","type":"hobbyCentre","telephone":"+49 241 99761185","seoUrl":"Warhammer-Aachen","facebookId":"WarhammerAachen"},{"id":"store-gb-1000474","storeId":"DU","distance":283.52,"name":"Warhammer - Dublin","latitude":53.3469832,"longitude":-6.265509,"country":"IE","postalCode":"D01 K199","city":"Dublin","address1":"Unit 3","address2":"Lower Liffey Street","type":"hobbyCentre","telephone":"00353 187 25791","seoUrl":"Warhammer-Dublin","facebookId":"WarhammerDublin","twitterId":"GWDublin"},{"id":"store-gb-900130","storeId":"GWM2","distance":287.87,"name":"Warhammer - Mönchengladbach","latitude":51.19529,"longitude":6.442829,"country":"DE","postalCode":"41061","city":"Mönchengladbach","address1":"Bismarckstr. 15","type":"hobbyCentre","telephone":"0049-216 1406 7745","seoUrl":"Warhammer-Mönchengladbach","facebookId":"WarhammerMoenchengladbach"},{"id":"store-gb-900232","storeId":"T1","distance":290.13,"name":"Warhammer - Tours","latitude":47.39263,"longitude":0.686206,"country":"FR","postalCode":"37000","city":"Tours","address1":"19 Rue Néricault Destouches","type":"hobbyCentre","telephone":"02 47 61 37 65","seoUrl":"Warhammer-Tours","facebookId":"WarhammerTours","twitterId":"gwtoursfr"},{"id":"store-gb-2900202","storeId":"GWN2","distance":298.63,"name":"Warhammer - Neuss","latitude":51.1974121,"longitude":6.6939424,"country":"DE","postalCode":"41460","city":"Neuss","address1":"Oberstr. 121","type":"hobbyCentre","telephone":"0049 (0) 2131 2096500","seoUrl":"Warhammer-Neuss","facebookId":"WarhammerNeuss","twitterId":"GWNeuss"},{"id":"store-gb-900140","storeId":"GWD5","distance":300.23,"name":"Warhammer - Duisburg","latitude":51.43127,"longitude":6.7695,"country":"DE","postalCode":"47051","city":"Duisburg","address1":"Tonhallenstraße 12-16","type":"hobbyCentre","telephone":"49 2039410673","seoUrl":"Warhammer-Duisburg","facebookId":"WarhammerDuisburg"},{"id":"store-gb-900162","storeId":"D6","distance":302.5,"name":"Warhammer - Düsseldorf","latitude":51.228293,"longitude":6.790248,"country":"DE","postalCode":"40211","city":"Düsseldorf","address1":"Am Wehrhahn 32","type":"hobbyCentre","telephone":"04921117544090","seoUrl":"Warhammer-Düsseldorf","facebookId":"WarhammerDuesseldorf"},{"id":"store-gb-900210","storeId":"N1","distance":305.58,"name":"Warhammer - Nantes","latitude":47.21591,"longitude":-1.55413,"country":"FR","postalCode":"44000","city":"Nantes","address1":"9, Rue du Moulin","type":"hobbyCentre","telephone":"+33251890244","seoUrl":"Warhammer-Nantes","facebookId":"WarhammerNantes","twitterId":"GWNantes"},{"id":"store-gb-4200013","storeId":"Z1","distance":306.25,"name":"Warhammer - Enschede","latitude":52.2201482,"longitude":6.8924628,"country":"NL","postalCode":"7511","city":"Enschede","address1":"Korte Haaksbergerstraat 30-30a","type":"hobbyCentre","telephone":"0031 53 4319163","seoUrl":"Warhammer-Enschede","facebookId":"WarhammerEnschede"},{"id":"store-gb-1000478","storeId":"ZQ","distance":307.79,"name":"Warhammer - Groningen","latitude":53.21815,"longitude":6.562653,"country":"NL","postalCode":"9712 BJ","city":"Groningen","address1":"1 Grote Kromme Elleboog","type":"hobbyCentre","telephone":"050 3110101","seoUrl":"Warhammer-Groningen","facebookId":"WarhammerGroningen","twitterId":"GWGroningen"},{"id":"store-gb-900126","storeId":"D32E4","distance":310.49,"name":"Warhammer - Essen","latitude":51.4551951,"longitude":7.0110685,"country":"DE","postalCode":"45127","city":"Essen","address1":"I. Hagen 26","type":"hobbyCentre","telephone":"+49 201 82178540","seoUrl":"Warhammer-Essen","facebookId":"WarhammerEssen"},{"id":"store-gb-900152","storeId":"GWK2","distance":312.47,"name":"Warhammer - Köln","latitude":50.93558,"longitude":6.950501,"country":"DE","postalCode":"50667","city":"Köln","address1":"Cäcilienstr. 42-44","type":"hobbyCentre","telephone":"49 2212577707","seoUrl":"Warhammer-Köln","facebookId":"WarhammerKoeln"},{"id":"store-gb-900092","storeId":"GWL3","distance":312.71,"name":"Warhammer - Leverkusen","latitude":51.03224,"longitude":6.98322,"country":"DE","postalCode":"51373","city":"Leverkusen","address1":"Wiesdorser Platz 80b","type":"hobbyCentre","telephone":"0049 2148 6919 480","seoUrl":"Warhammer-Leverkusen","facebookId":"WarhammerLeverkusen"},{"id":"store-gb-15500015","storeId":"D32G3","distance":314.08,"name":"Warhammer - Gelsenkirchen","latitude":51.5076545,"longitude":7.100224,"country":"DE","postalCode":"45879","city":"Gelsenkirchen","address1":"WEKA-Karree","address2":"Bahnhofstr. 55-65 / Augustastr. 1","address3":"(Eingang Weberstraße)","type":"hobbyCentre","telephone":"0049 209 94432650","seoUrl":"Warhammer-Gelsenkirchen","facebookId":"WarhammerGelsenkirchen"},{"id":"store-gb-900170","storeId":"GWS2","distance":315.65,"name":"Warhammer - Solingen","latitude":51.16972,"longitude":7.084547,"country":"DE","postalCode":"42651","city":"Solingen","address1":"Ufergarten 33","type":"hobbyCentre","telephone":"0212 38244466","seoUrl":"Warhammer-Solingen","facebookId":"WarhammerSolingen"},{"id":"store-gb-900260","storeId":"BT","distance":317.32,"name":"Warhammer - Belfast","latitude":54.5973644,"longitude":-5.9350123,"country":"GB","postalCode":"BT1 6GB","county":"Northern Ireland","city":"Belfast","address1":"13 Wellington Place","type":"hobbyCentre","telephone":"02890 23 3684","seoUrl":"Warhammer-Belfast","facebookId":"WarhammerBelfast"},{"id":"store-gb-900160","storeId":"W3","distance":317.44,"name":"Warhammer - Wuppertal","latitude":51.2611168,"longitude":7.1440792,"country":"DE","postalCode":"42105","city":"Wuppertal","address1":"Friedrichstr. 25","type":"hobbyCentre","telephone":"0049 202 75950266","seoUrl":"Warhammer-Wuppertal","facebookId":"WarhammerWuppertal"},{"id":"store-gb-900158","storeId":"D32B7","distance":319.4,"name":"Warhammer - Bochum","latitude":51.48015,"longitude":7.2214,"country":"DE","postalCode":"44787","city":"Bochum","address1":"Trankgasse 1","type":"hobbyCentre","telephone":"+49 234 91389010","seoUrl":"Warhammer-Bochum","facebookId":"WarhammerBochum"},{"id":"store-gb-900118","storeId":"GWB6","distance":321.6,"name":"Warhammer Bonn","latitude":50.73626,"longitude":7.098425,"country":"DE","postalCode":"53111","city":"Bonn","address1":"Kasernenstr. 8-10","type":"hobbyCentre","telephone":"49 2289610901","seoUrl":"Warhammer-Bonn","facebookId":"WarhammerBonn"},{"id":"store-gb-900166","storeId":"DT2","distance":324.37,"name":"Warhammer - Trier","latitude":49.754542,"longitude":6.635369,"country":"DE","postalCode":"54290","county":"Germany","city":"Trier","address1":"Johannisstraße 23","type":"hobbyCentre","telephone":"0049 651 46372276","seoUrl":"Warhammer-Trier","facebookId":"WarhammerTrier"},{"id":"store-gb-900252","storeId":"A3","distance":325.27,"name":"Warhammer - Ayr","latitude":55.45856,"longitude":-4.62918,"country":"GB","postalCode":"KA7 1QL","county":"Scotland","city":"Ayr","address1":"Unit 2","address2":"Lorne Arcade","address3":"115 High Street","type":"hobbyCentre","telephone":"01292 285 650","seoUrl":"Warhammer-Ayr","facebookId":"WarhammerAyr","twitterId":"GWAyr"},{"id":"store-gb-1000170","storeId":"EB","distance":327.67,"name":"Warhammer - Edinburgh","latitude":55.9515,"longitude":-3.2033,"country":"GB","postalCode":"EH2 3AT","county":"Scotland","city":"Edinburgh","address1":"8 Castle Street","type":"hobbyCentre","telephone":"0131 220 6540","seoUrl":"Warhammer-Edinburgh","facebookId":"WarhammerEdinburgh","twitterId":"GW_Edinburgh"},{"id":"store-gb-900246","storeId":"M2","distance":327.85,"name":"Warhammer - Metz","latitude":49.11845,"longitude":6.177651,"country":"FR","postalCode":"57000","city":"Metz","address1":"52, En Fournirue","type":"hobbyCentre","telephone":"03 87 74 66 20","seoUrl":"Warhammer-Metz","facebookId":"/WarhammerMetz/"},{"id":"store-gb-900136","storeId":"GWD2","distance":329.65,"name":"Warhammer - Dortmund","latitude":51.511818,"longitude":7.463394,"country":"DE","postalCode":"44137","city":"Dortmund","address1":"Hansastr. 95","type":"hobbyCentre","telephone":"+49 231 53489353","seoUrl":"Warhammer-Dortmund","facebookId":"WarhammerDortmund"},{"id":"store-gb-3100148","storeId":"GWM5","distance":336.52,"name":"Warhammer - Münster","latitude":51.9584034,"longitude":7.6347696,"country":"DE","postalCode":"48143","city":"Münster","address1":"Bahnhofstr. 1-11","type":"hobbyCentre","telephone":"0049 (0) 251 98119840","seoUrl":"Warhammer-Münster","facebookId":"WarhammerMuenster"},{"id":"store-gb-1000176","storeId":"F1","distance":340.1,"name":"Warhammer - Falkirk","latitude":55.99866,"longitude":-3.78313,"country":"GB","postalCode":"FK1 1PL","county":"Scotland","city":"Falkirk","address1":"12 Cow Wynd","type":"hobbyCentre","telephone":"01324 624 553","seoUrl":"Warhammer-Falkirk","facebookId":"WarhammerFalkirk"},{"id":"store-gb-1000178","storeId":"G6","distance":340.51,"name":"Warhammer - Glasgow","latitude":55.85956,"longitude":-4.25691,"country":"GB","postalCode":"G1 3RB","county":"Scotland","city":"Glasgow","address1":"39 Union Street","type":"hobbyCentre","telephone":"0141 2211673","seoUrl":"Warhammer-Glasgow","facebookId":"WarhammerGlasgow","twitterId":"GWGlasgow"},{"id":"store-gb-10300009","storeId":"H5","distance":344.36,"name":"Warhammer - Hamm","latitude":51.6820726,"longitude":7.8185567,"country":"DE","postalCode":"59065","city":"Hamm","address1":"Oststraße 11","type":"hobbyCentre","telephone":"0049 (0) 2381 4945930","seoUrl":"Warhammer-Hamm","facebookId":"WarhammerHamm"},{"id":"store-gb-900230","storeId":"N2","distance":345.04,"name":"Warhammer - Nancy","latitude":48.69183,"longitude":6.18169,"country":"FR","postalCode":"54000","city":"Nancy","address1":"10, Rue Saint Dizier","type":"hobbyCentre","telephone":"03 83 30 62 56","seoUrl":"Warhammer-Nancy","facebookId":"WarhammerNancy","twitterId":"GWNancy"},{"id":"store-gb-12000133","storeId":"D32K8","distance":349.13,"name":"Warhammer - Koblenz","latitude":50.3577573,"longitude":7.5894341,"country":"DE","postalCode":"56068","city":"Koblenz","address1":"Hohenfelder Str. 27","type":"hobbyCentre","telephone":"+49 261 97332870","seoUrl":"Warhammer-Koblenz","facebookId":"WarhammerKoblenz/"},{"id":"store-gb-1000292","storeId":"SF","distance":350.32,"name":"Warhammer - Stirling","latitude":56.12047,"longitude":-3.93837,"country":"GB","postalCode":"FK8 1HF","county":"Scotland","city":"Stirling","address1":"45 Barnton Street","type":"hobbyCentre","telephone":"01786 459009","seoUrl":"Warhammer-Stirling","facebookId":"WarhammerStirling","twitterId":"GWStirling"},{"id":"store-gb-4800188","storeId":"CK","distance":354.21,"name":"Warhammer - Cork","latitude":51.9009545,"longitude":-8.4700114,"country":"IE","postalCode":"T23 CY5X","city":"Cork","address1":"Unit 1/2","address2":"St Patricks Quay","type":"hobbyCentre","telephone":"00353 (0) 21 4503232","seoUrl":"Warhammer-Cork","facebookId":"WarhammerCork"},{"id":"store-gb-11800025","storeId":"D32S4","distance":355.02,"name":"Warhammer - Saarbrücken","latitude":49.2370672,"longitude":6.9924047,"country":"DE","postalCode":"66111","city":"Saarbrücken","address1":"Kaiserstrasse 16 - 18","address2":"(Eingang Sulzbachstrasse)","type":"hobbyCentre","telephone":"0049 681 95812850","seoUrl":"Warhammer-Saarbrücken","facebookId":"WarhammerSaarbruecken"},{"id":"store-gb-10500009","storeId":"D32O4","distance":355.31,"name":"Warhammer - Osnabrück","latitude":52.2736963,"longitude":8.0489716,"country":"DE","postalCode":"49074","city":"Osnabrück","address1":"Öwer de Hase 21","type":"hobbyCentre","telephone":"0049 (0)541 35044380","seoUrl":"Warhammer-Osnabrück","facebookId":"WarhammerOsnabrueck"},{"id":"store-gb-1000164","storeId":"D3","distance":357.32,"name":"Warhammer - Dundee","latitude":56.46223,"longitude":-2.97043,"country":"GB","postalCode":"DD1 2AJ","county":"Scotland","city":"Dundee","address1":"110 Commercial Street","type":"hobbyCentre","telephone":"01382 202382","seoUrl":"Warhammer-Dundee","facebookId":"WarhammerDundee","twitterId":"GWDundee"},{"id":"store-gb-5300041","storeId":"P8","distance":359.35,"name":"Warhammer - Perth (GB)","latitude":56.3948716,"longitude":-3.4343055,"country":"GB","postalCode":"PH2 8JW","county":"Scotland","city":"Perth","address1":"62 Scott Street","type":"hobbyCentre","telephone":"01738 623188","seoUrl":"Warhammer-Perth","facebookId":"WarhammerPerthUK"},{"id":"store-gb-900176","storeId":"GWO3","distance":371.84,"name":"Warhammer - Oldenburg","latitude":53.13929,"longitude":8.21402,"country":"DE","postalCode":"26122","city":"Oldenburg","address1":"Markt 2/3","type":"hobbyCentre","telephone":"0441 200 99 318","seoUrl":"Warhammer-Oldenburg","facebookId":"WarhammerOldenburg"},{"id":"store-gb-900122","storeId":"GWB4","distance":374.65,"name":"Warhammer - Bielefeld","latitude":52.01965,"longitude":8.528547,"country":"DE","postalCode":"33602","city":"Bielefeld","address1":"Obernstrasse 43","type":"hobbyCentre","telephone":"49 5217853709","seoUrl":"Warhammer-Bielefeld","facebookId":"WarhammerBielefeld"},{"id":"store-gb-900238","storeId":"D1","distance":375.3,"name":"Warhammer - Dijon","latitude":47.3244597,"longitude":5.044129,"country":"FR","postalCode":"21000","city":"Dijon","address1":"66 Rue Jean Jacques Rousseau","type":"hobbyCentre","telephone":"03 45 42 16 15","seoUrl":"Warhammer-Dijon","facebookId":"WarhammerDijon","twitterId":"GWDijon"},{"id":"store-gb-900106","storeId":"GWW2","distance":382.32,"name":"Warhammer - Wiesbaden","latitude":50.08021,"longitude":8.23918,"country":"DE","postalCode":"65185","city":"Wiesbaden","address1":"Friedrichstr. 34-36","type":"hobbyCentre","telephone":"49 611 5058 7098","seoUrl":"Warhammer-Wiesbaden","facebookId":"WarhammerWiesbaden"},{"id":"store-gb-900098","storeId":"GWP2","distance":384.26,"name":"Warhammer - Paderborn","latitude":51.71718,"longitude":8.752402,"country":"DE","postalCode":"33098","city":"Paderborn","address1":"Marienstr. 5","type":"hobbyCentre","telephone":"05251 5069999","seoUrl":"Warhammer-Paderborn","facebookId":"WarhammerPaderborn"},{"id":"store-gb-4800186","storeId":"M6","distance":385.19,"name":"Warhammer - Mainz","latitude":50.0006711,"longitude":8.264825,"country":"DE","postalCode":"55116","city":"Mainz","address1":"Große Bleiche 6","type":"hobbyCentre","telephone":"06131 2148450","seoUrl":"Warhammer-Mainz","facebookId":"WarhammerMainz"},{"id":"store-gb-900244","storeId":"A1","distance":394.17,"name":"Warhammer - Aberdeen","latitude":57.14893,"longitude":-2.09837,"country":"GB","postalCode":"AB10 1BA","county":"Scotland","city":"Aberdeen","address1":"12 -14 Upper Kirkgate","type":"hobbyCentre","telephone":"01224 649779","seoUrl":"Warhammer-Aberdeen","facebookId":"WarhammerAberdeen","twitterId":"GWAberdeen"},{"id":"store-gb-900124","storeId":"GWB5","distance":394.79,"name":"Warhammer - Bremen","latitude":53.07987,"longitude":8.803949,"country":"DE","postalCode":"28195","city":"Bremen","address1":"Am Wall 113","type":"hobbyCentre","telephone":"49 4211690000","seoUrl":"Warhammer-Bremen","facebookId":"WarhammerBremen"},{"id":"store-gb-900120","storeId":"GWF1","distance":400.39,"name":"Warhammer Hobbyzentrum Frankfurt","latitude":50.11602,"longitude":8.68652,"country":"DE","postalCode":"60313","city":"Frankfurt/Main","address1":"Große Friedberger Str. 30","type":"hobbyCentre","telephone":"00496921999266","seoUrl":"Warhammer-Hobbyzentrum-Frankfurt","facebookId":"WarhammerFrankfurt"},{"id":"store-gb-900262","storeId":"L5","distance":400.91,"name":"Warhammer - Limoges","latitude":45.82984,"longitude":1.256108,"country":"FR","postalCode":"87000","city":"Limoges","address1":"3, Rue Othon Peconnet","type":"hobbyCentre","telephone":"05 55 10 38 41","seoUrl":"Warhammer-Limoges","facebookId":"WarhammerLimoges","twitterId":"GWLimoges"},{"id":"store-gb-900090","storeId":"GWD7","distance":404.46,"name":"Warhammer - Darmstadt","latitude":49.86965,"longitude":8.65212,"country":"DE","postalCode":"64283","city":"Darmstadt","address1":"Wilhelminenpassage","type":"hobbyCentre","telephone":"49 6151158845","seoUrl":"Warhammer-Darmstadt","facebookId":"DarmstadtWarhammer"},{"id":"store-gb-900164","storeId":"GWM1","distance":406.5,"name":"Warhammer - Mannheim","latitude":49.4879625,"longitude":8.4634539,"country":"DE","postalCode":"68159","city":"Mannheim","address1":"D3, 4","type":"hobbyCentre","telephone":"49 6214053390","seoUrl":"Warhammer-Mannheim","facebookId":"WarhammerMannheim"},{"id":"store-gb-900228","storeId":"S1","distance":408.02,"name":"Warhammer - Strasbourg","latitude":48.58257,"longitude":7.751909,"country":"FR","postalCode":"67000","city":"Strasbourg","address1":"5 Rue des Frères","type":"hobbyCentre","telephone":"03 88 32 08 06","seoUrl":"Warhammer-Strasbourg","facebookId":"WHStrasbourg","twitterId":"GWStrasbourg"},{"id":"store-gb-900138","storeId":"GWK5","distance":418.0,"name":"Warhammer - Kassel","latitude":51.31247,"longitude":9.49373,"country":"DE","postalCode":"34117","county":"Germany","city":"Kassel","address1":"Wilhelmsstraße 31","type":"hobbyCentre","telephone":"0049561 76687696","seoUrl":"Warhammer-Kassel","facebookId":"WarhammerKassel"},{"id":"store-gb-900116","storeId":"GWK1","distance":418.17,"name":"Warhammer - Karlsruhe","latitude":49.01065,"longitude":8.395361,"country":"DE","postalCode":"76133","city":"Karlsruhe","address1":"Karlstraße 13","type":"hobbyCentre","telephone":"0721 95761108","seoUrl":"Warhammer-Karlsruhe","facebookId":"WarhammerKarlsruhe"},{"id":"store-gb-900242","storeId":"C2","distance":426.09,"name":"Warhammer - Clermont Ferrand","latitude":45.77845,"longitude":3.08157,"country":"FR","postalCode":"63000","city":"Clermont-Ferrand","address1":"38 Avenue des Etats Unis","type":"hobbyCentre","telephone":"04 73 19 20 76","seoUrl":"Warhammer-Clermont-Ferrand","facebookId":"WarhammerClermontFerrand","twitterId":"GWClermont"},{"id":"store-gb-900100","storeId":"GWH3","distance":426.69,"name":"Warhammer - Hannover","latitude":52.37585,"longitude":9.73152,"country":"DE","postalCode":"30159","city":"Hannover","address1":"Lange Laube 1/1A","type":"hobbyCentre","telephone":"0511 76383441","seoUrl":"Warhammer-Hannover","facebookId":"WarhammerHannover"},{"id":"store-gb-900278","storeId":"M4","distance":427.45,"name":"Warhammer - Mulhouse","latitude":47.74691,"longitude":7.335722,"country":"FR","postalCode":"68100","city":"Mulhouse","address1":"5, Rue des Tanneurs","type":"hobbyCentre","telephone":"03 89 66 26 21","seoUrl":"Warhammer-Mulhouse","facebookId":"WarhammerMulhouse","twitterId":"GWMulhouse"},{"id":"store-gb-14400187","storeId":"D32G2","distance":435.66,"name":"Warhammer - Göttingen","latitude":51.53357,"longitude":9.9367904,"country":"DE","postalCode":"37073","city":"Göttingen","address1":"Jüdenstraße 13b","type":"hobbyCentre","telephone":"0551 49969600","seoUrl":"Warhammer-Göttingen","facebookId":"WarhammerGoettingen"},{"id":"store-gb-1000196","storeId":"I3","distance":440.01,"name":"Warhammer - Inverness","latitude":57.4799,"longitude":-4.22516,"country":"GB","postalCode":"IV1 1LR","county":"Scotland","city":"Inverness","address1":"1c Strothers Lane","type":"hobbyCentre","telephone":"01463 716 676","seoUrl":"Warhammer-Inverness","facebookId":"WarhammerInverness"},{"id":"store-gb-900112","storeId":"GWH1","distance":449.86,"name":"Warhammer - Hamburg 01","latitude":53.55565,"longitude":9.990268,"country":"DE","postalCode":"20354","city":"Hamburg","address1":"Colonnaden 15","type":"hobbyCentre","telephone":"49 4035713164","seoUrl":"Warhammer-Hamburg-01","facebookId":"WarhammerHamburg1"},{"id":"store-gb-900096","storeId":"GWS1","distance":457.14,"name":"Warhammer - Stuttgart","latitude":48.7736,"longitude":9.17519,"country":"DE","postalCode":"70173","city":"Stuttgart","address1":"Königstr. 49","type":"hobbyCentre","telephone":"49 7112294860","seoUrl":"Warhammer-Stuttgart","facebookId":"WarhammerStuttgart"},{"id":"store-gb-12700010","storeId":"D32H6","distance":457.69,"name":"Warhammer - Hamburg 03","latitude":53.4864783,"longitude":10.2134229,"country":"DE","postalCode":"21029","city":"Hamburg","address1":"Mohnhof 6","type":"hobbyCentre","telephone":"0049 (0) 40 24893240","seoUrl":"Warhammer-Hamburg-03","facebookId":"WarhammerHamburgBergedorf"},{"id":"store-gb-900142","storeId":"GWB8","distance":459.72,"name":"Warhammer - Braunschweig","latitude":52.26195,"longitude":10.52338,"country":"DE","postalCode":"38100","county":"Germany","city":"Braunschweig","address1":"Münzstr. 10","type":"hobbyCentre","telephone":"0531 61285990","seoUrl":"Warhammer-Braunschweig","facebookId":"WarhammerBraunschweig"},{"id":"store-gb-4700097","storeId":"GWW6","distance":459.86,"name":"Warhammer - Wurzburg","latitude":49.79133,"longitude":9.92849,"country":"DE","postalCode":"97070","city":"Würzburg","address1":"Augustinerstr. 18","type":"hobbyCentre","telephone":"0049 (0) 931 46586800","seoUrl":"Warhammer-Wurzburg","facebookId":"WarhammerWuerzburg"},{"id":"store-gb-900218","storeId":"L1","distance":460.96,"name":"Warhammer - Lyon 01 Joseph Serlin","latitude":45.76747,"longitude":4.83603,"country":"FR","postalCode":"69001","city":"Lyon","address1":"10, Rue Joseph Serlin","type":"hobbyCentre","telephone":"04 87 24 28 06","seoUrl":"Warhammer-Lyon-01-Joseph-Serlin","facebookId":"WarhammerLyon","twitterId":"GWLyon1"},{"id":"store-gb-900286","storeId":"L6","distance":461.57,"name":"Warhammer - Lyon 06 Brotteaux","latitude":45.7653,"longitude":4.857082,"country":"FR","postalCode":"69006","city":"Lyon","address1":"56 Boulevard des Brotteaux","type":"hobbyCentre","telephone":"04.78.26.28.77.","seoUrl":"Warhammer-Lyon-06-Brotteaux","facebookId":"WarhammerLyon2","twitterId":"GWLyon2"},{"id":"store-gb-900214","storeId":"B1","distance":464.24,"name":"Warhammer - Bordeaux","latitude":44.83679,"longitude":-0.57471,"country":"FR","postalCode":"33000","city":"Bordeaux","address1":"63 Rue des Ayres","type":"hobbyCentre","telephone":"05 56 44 50 56","seoUrl":"Warhammer-Bordeaux","facebookId":"WarhammerBordeaux","twitterId":"GWBordeaux"},{"id":"store-gb-16000009","storeId":"D32S5","distance":467.3,"name":"Warhammer - Schweinfurt","latitude":50.0450695,"longitude":10.2324455,"country":"DE","postalCode":"97421","city":"Schweinfurt","address1":"Lange Zehntstr. 18 1/2","type":"hobbyCentre","telephone":"0049 9721 5419964","seoUrl":"Warhammer-Schweinfurt","facebookId":"WarhammerSchweinfurt"},{"id":"store-gb-900180","storeId":"GWK6","distance":470.91,"name":"Warhammer - Kiel","latitude":54.32303,"longitude":10.13652,"country":"DE","postalCode":"24103","county":"Germany","city":"Kiel","address1":"Kehdenstr. 24","type":"hobbyCentre","telephone":"004943198288734","seoUrl":"Warhammer-Kiel","facebookId":"WarhammerKiel"},{"id":"store-gb-900146","storeId":"GWL2","distance":482.75,"name":"Warhammer - Lübeck","latitude":53.8644,"longitude":10.68672,"country":"DE","postalCode":"23552","county":"Germany","city":"Lübeck","address1":"Königstr. 113-119","type":"hobbyCentre","telephone":"0451 9892206","seoUrl":"Warhammer-Lübeck","facebookId":"WarhammerLuebeck"},{"id":"store-gb-900128","storeId":"GWE1","distance":487.16,"name":"Warhammer - Erfurt","latitude":50.97513,"longitude":11.03172,"country":"DE","postalCode":"99084","city":"Erfurt","address1":"Weitergasse 3","type":"hobbyCentre","telephone":"+49 361 644 171 33","seoUrl":"Warhammer-Erfurt","facebookId":"WarhammerErfurt"},{"id":"store-gb-16200009","storeId":"K9","distance":498.18,"name":"Warhammer - Konstanz","latitude":47.65913,"longitude":9.17163,"country":"DE","postalCode":"78462","city":"Konstanz","address1":"Hussenpassage","address2":"Hussenstrasse 31","type":"hobbyCentre","telephone":" +49 7531 9165224","seoUrl":"Warhammer-Konstanz","facebookId":"WarhammerKonstanz"},{"id":"store-gb-900172","storeId":"GWU1","distance":502.49,"name":"Warhammer - Ulm","latitude":48.3998,"longitude":9.996535,"country":"DE","postalCode":"89073","city":"Ulm","address1":"Frauenstr. 25","type":"hobbyCentre","telephone":"+49 731 96917137","seoUrl":"Warhammer-Ulm","facebookId":"WarhammerUlm"},{"id":"store-gb-5800074","storeId":"DM7","distance":506.75,"name":"Warhammer - Magdeburg","latitude":52.1356533,"longitude":11.6372313,"country":"DE","postalCode":"39104","city":"Magdeburg","address1":"Breiter Weg 36","type":"hobbyCentre","telephone":"+49 391 55568105","seoUrl":"Warhammer-Magdeburg","facebookId":"WarhammerMagdeburg"},{"id":"store-gb-15500016","storeId":"D32E3","distance":509.58,"name":"Warhammer - Erlangen","latitude":49.5966016,"longitude":11.0016842,"country":"DE","postalCode":"91054","city":"Erlangen","address1":"Einhornstr. 2a","type":"hobbyCentre","telephone":"0049 (0)9131 1253760","seoUrl":"Warhammer-Erlangen","facebookId":"WarhammerErlangen"},{"id":"store-gb-900114","storeId":"GWN1","distance":516.09,"name":"Warhammer - Nürnberg","latitude":49.44899,"longitude":11.07284,"country":"DE","postalCode":"90402","city":"Nürnberg","address1":"Jakobstr. 26","type":"hobbyCentre","telephone":"+49 911 37855677","seoUrl":"Warhammer-Nürnberg","facebookId":"WarhammerNuernberg"},{"id":"store-gb-900178","storeId":"GWH4","distance":522.92,"name":"Warhammer - Halle","latitude":51.48725,"longitude":11.96672,"country":"DE","postalCode":"06108","city":"Halle an der Saale","address1":"Große Ulrichstr. 35","type":"hobbyCentre","telephone":"(0345)29989953","seoUrl":"Warhammer-Halle","facebookId":"WarhammerHalle"},{"id":"store-gb-900144","storeId":"GWA2","distance":539.62,"name":"Warhammer - Augsburg","latitude":48.3667,"longitude":10.89283,"country":"DE","postalCode":"86150","city":"Augsburg","address1":"Schaezlerstr. 2","type":"hobbyCentre","telephone":"0821 5439507","seoUrl":"Warhammer-Augsburg","facebookId":"WarhammerAugsburg"},{"id":"store-gb-900094","storeId":"GWL1","distance":541.4,"name":"Warhammer - Leipzig","latitude":51.3376,"longitude":12.37293,"country":"DE","postalCode":"04109","city":"Leipzig","address1":"Burgplatz 2","type":"hobbyCentre","telephone":"0341 99990603","seoUrl":"Warhammer-Leipzig","facebookId":"WarhammerLeipzig"},{"id":"store-gb-900174","storeId":"GWI1","distance":549.24,"name":"Warhammer - Ingolstadt","latitude":48.76426,"longitude":11.42813,"country":"DE","postalCode":"85049","city":"Ingolstadt","address1":"Hallstraße 8","type":"hobbyCentre","telephone":"0841 13237395","seoUrl":"Warhammer-Ingolstadt","facebookId":"WarhammerIngolstadt"},{"id":"store-gb-900216","storeId":"T2","distance":554.63,"name":"Warhammer - Toulouse","latitude":43.60151,"longitude":1.443244,"country":"FR","postalCode":"31000","city":"Toulouse","address1":"13, Rue Temponières","type":"hobbyCentre","telephone":"05 61 22 52 57","seoUrl":"Warhammer-Toulouse","facebookId":"WarhammerToulouse","twitterId":"GWToulouse"},{"id":"store-gb-14700054","storeId":"D32M8","distance":569.74,"name":"Warhammer - München 02","latitude":48.1468718,"longitude":11.4585756,"country":"DE","postalCode":"81241","city":"München","address1":"Bodenseestrasse 3","type":"hobbyCentre","telephone":"089 51772200","seoUrl":"Warhammer-München-02","facebookId":"WarhammerMuenchenPasing"},{"id":"store-gb-10800012","storeId":"D3C1","distance":569.85,"name":"Warhammer - Chemnitz","latitude":50.8318323,"longitude":12.9177908,"country":"DE","postalCode":"09111","city":"Chemnitz","address1":"Am Rathaus 2 - 4","type":"hobbyCentre","telephone":"0049 (0)371 36758230","seoUrl":"Warhammer-Chemnitz","facebookId":"WarhammerChemnitz"},{"id":"store-gb-14500009","storeId":"D32R1","distance":569.92,"name":"Warhammer - Regensburg","latitude":49.01894,"longitude":12.0954232,"country":"DE","postalCode":"93047","city":"Regensburg","address1":"Wahlenstrasse 21","type":"hobbyCentre","telephone":"0049 941 59984670","seoUrl":"Warhammer-Regensburg","facebookId":"WarhammerRegensburg"},{"id":"store-gb-900208","storeId":"P6","distance":570.46,"name":"Warhammer - Pau","latitude":43.29596,"longitude":-0.37399,"country":"FR","postalCode":"64000","city":"Pau","address1":"6, rue Bordenave d’Abère","type":"hobbyCentre","telephone":"05 59 05 22 85","seoUrl":"Warhammer-Pau","facebookId":"WarhammerPau","twitterId":"GWPau"},{"id":"store-gb-900086","storeId":"GWB9","distance":573.38,"name":"Warhammer - Spandau","latitude":52.53857,"longitude":13.20703,"country":"DE","postalCode":"13597","city":"Berlin","address1":"Breite Str. 42","type":"hobbyCentre","telephone":"49 30 53674909","seoUrl":"Warhammer-Spandau","facebookId":"WarhammerBerlinSpandau"},{"id":"store-gb-900258","storeId":"N5","distance":573.59,"name":"Warhammer - Nîmes","latitude":43.83643,"longitude":4.361035,"country":"FR","postalCode":"30000","city":"Nîmes","address1":"5, Rue des Fourbisseurs","type":"hobbyCentre","telephone":"04 34 28 88 37","seoUrl":"Warhammer-Nîmes","facebookId":"WarhammerNimes","twitterId":"GWNimes"},{"id":"store-gb-900282","storeId":"A4","distance":574.39,"name":"Warhammer - Avignon","latitude":43.94934,"longitude":4.811801,"country":"FR","postalCode":"84000","city":"Avignon","address1":"6 rue du Portail Mathéron","type":"hobbyCentre","telephone":"04 90 82 11 82","seoUrl":"Warhammer-Avignon","facebookId":"WarhammerAvignon","twitterId":"GWAvignon"},{"id":"store-gb-900132","storeId":"GWM3","distance":574.97,"name":"Warhammer - München","latitude":48.1335,"longitude":11.57698,"country":"DE","postalCode":"80469","city":"München","address1":"Rumfordstr. 9","type":"hobbyCentre","telephone":"+49 89 21266665","seoUrl":"Warhammer-München","facebookId":"WarhammerMuenchen1"},{"id":"store-gb-900066","storeId":"3202","distance":575.25,"name":"Warhammer - Torino","latitude":45.07345,"longitude":7.677839,"country":"IT","postalCode":"10122","county":"TO","city":"Torino","address1":"Via San Dalmazzo 3","type":"hobbyCentre","telephone":"011 5628472","seoUrl":"Warhammer-Torino","facebookId":"WarhammerTorino"},{"id":"store-gb-900088","storeId":"GWB3","distance":578.78,"name":"Warhammer - Berlin 1","latitude":52.5043,"longitude":13.33683,"country":"DE","postalCode":"10789","county":"Germany","city":"Berlin","address1":"Tauentzienstr. 9-12","address2":"Europacenter","type":"hobbyCentre","telephone":"0049 (0)30 25757440","seoUrl":"Warhammer-Berlin-1","facebookId":"WarhammerBerlin1"},{"id":"store-gb-900220","storeId":"M3","distance":580.56,"name":"Warhammer Montpellier","latitude":43.61018,"longitude":3.875962,"country":"FR","postalCode":"34000","city":"Montpellier","address1":"2, Rue Draperie Saint Firmin","type":"hobbyCentre","telephone":"04 48 18 86 48","seoUrl":"Warhammer-Montpellier","facebookId":"WarhammerMontpellier","twitterId":"GWMontpellier"},{"id":"store-gb-11000010","storeId":"D32B14","distance":581.59,"name":"Warhammer - Berlin Alexanderplatz","latitude":52.522199,"longitude":13.403184,"country":"DE","postalCode":"10178","city":"Berlin","address1":"Litfaßplatz 3","type":"hobbyCentre","telephone":"+49 30 27594610","seoUrl":"Warhammer-Berlin-Alexanderplatz","facebookId":"WarhammerBerlinAlexanderplatz"},{"id":"store-gb-900150","storeId":"GWB2","distance":584.48,"name":"Warhammer - Berlin 2","latitude":52.51366,"longitude":13.47224,"country":"DE","postalCode":"10247","county":"Germany","city":"Berlin","address1":"Frankfurter Allee 96","type":"hobbyCentre","telephone":"49 3029049390","seoUrl":"Warhammer-Berlin-2","facebookId":"WarhammerBerlin02"},{"id":"store-gb-1000446","storeId":"3208","distance":586.94,"name":"Warhammer - Bilbao","latitude":43.25866,"longitude":-2.94093,"country":"ES","postalCode":"48010","county":"Bizkaia","city":"Bilbao","address1":"Pérez Galdós, 3","type":"hobbyCentre","telephone":"944 443 108","seoUrl":"Warhammer-Bilbao","facebookId":"WarhammerBilbao","twitterId":"GW_Bilbao"},{"id":"store-gb-1000436","storeId":"Z4","distance":595.16,"name":"Warhammer - København","latitude":55.678627,"longitude":12.5703076,"country":"DK","postalCode":"1159","city":"København","address1":"Skindergade 44","address2":"Copenhagen K","type":"hobbyCentre","telephone":"33 12 22 17","seoUrl":"Warhammer-København","facebookId":"WarhammerKobenhavn","twitterId":"GWCopenhagen"},{"id":"store-gb-900076","storeId":"3209","distance":597.37,"name":"Warhammer - Monza","latitude":45.58398,"longitude":9.271425,"country":"IT","postalCode":"20900","county":"MB","city":"Monza","address1":"Via Padre Reginaldo Giuliani 10","type":"hobbyCentre","telephone":"039 39 02 534","seoUrl":"Warhammer-Monza","facebookId":"WarhammerMonza"},{"id":"store-gb-3500106","storeId":"D32AI1","distance":598.45,"name":"Warhammer - Innsbruck","latitude":47.2660828,"longitude":11.3840467,"country":"AT","postalCode":"6020","city":"Innsbruck","address1":"Blasius-Hueber-Straße 16","type":"hobbyCentre","telephone":"+43 512 283059","seoUrl":"Warhammer-Innsbruck","facebookId":"WarhammerInnsbruck"},{"id":"store-gb-900062","storeId":"3217","distance":600.6,"name":"Warhammer - Milano","latitude":45.4610991,"longitude":9.1791422,"country":"IT","postalCode":"20123","county":"MI","city":"Milano","address1":"Via San Sisto, 5","type":"hobbyCentre","telephone":"02 864 584 90","seoUrl":"Warhammer-Milano","facebookId":"WarhammerMilano"},{"id":"store-gb-900156","storeId":"GWD3","distance":602.43,"name":"Warhammer - Dresden","latitude":51.05126,"longitude":13.73389,"country":"DE","postalCode":"01067","city":"Dresden","address1":"Postplatz 1","type":"hobbyCentre","telephone":"49 3512069715","seoUrl":"Warhammer-Dresden","facebookId":"WarhammerDresden"},{"id":"store-gb-1000452","storeId":"3220","distance":607.61,"name":"Warhammer - Pamplona","latitude":42.81221,"longitude":-1.65531,"country":"ES","postalCode":"31008","county":"Navarra","city":"Pamplona","address1":"Avenida Pio XII, 6","type":"hobbyCentre","telephone":"948 259 274","seoUrl":"Warhammer-Pamplona","facebookId":"WarhammerPamplona","twitterId":"GW_Pamplona"},{"id":"store-gb-900266","storeId":"A1","distance":613.45,"name":"Warhammer - Aix En Provence","latitude":43.52838,"longitude":5.445416,"country":"FR","postalCode":"13100","city":"Aix en Provence","address1":"33, Rue de la Couronne","type":"hobbyCentre","telephone":"04 42 26 83 66","seoUrl":"Warhammer-Aix-En-Provence","facebookId":"WarhammerAixenProvence","twitterId":"GWAix"},{"id":"store-gb-900206","storeId":"M5","distance":627.26,"name":"Warhammer - Marseille","latitude":43.2908649,"longitude":5.3791945,"country":"FR","postalCode":"13006","city":"Marseille","address1":"8, Rue Armeny","type":"hobbyCentre","telephone":"04 91 57 01 45","seoUrl":"Warhammer-Marseille","facebookId":"WarhammerMarseille","twitterId":"GWMarseille"},{"id":"store-gb-900224","storeId":"P5","distance":628.63,"name":"Warhammer - Perpignan","latitude":42.69916,"longitude":2.892651,"country":"FR","postalCode":"66000","city":"Perpignan","address1":"13 Rue de l\u0027Argenterie,","type":"hobbyCentre","telephone":"04 30 44 05 82","seoUrl":"Warhammer-Perpignan","facebookId":"WarhammerPerpignan","twitterId":"GWPerpignan"},{"id":"store-gb-900204","storeId":"N3","distance":643.99,"name":"Warhammer - Nice","latitude":43.70047,"longitude":7.273901,"country":"FR","postalCode":"06000","city":"Nice","address1":"19 rue de l\u0027hôtel des postes","type":"hobbyCentre","telephone":"04 93 92 52 22","seoUrl":"Warhammer-Nice","facebookId":"WarhammerNice","twitterId":"GWNice"},{"id":"store-gb-1000502","storeId":"GB","distance":645.1,"name":"Warhammer - Göteborg","latitude":57.7066238,"longitude":11.9730278,"country":"SE","postalCode":"41107","city":"Göteborg","address1":"Drottninggatan 68","type":"hobbyCentre","telephone":"031-133958","seoUrl":"Warhammer-Göteborg","facebookId":"WarhammerGoteborg","twitterId":"GWGoteborg"},{"id":"store-gb-900070","storeId":"3212","distance":648.69,"name":"Warhammer - Genova","latitude":44.41144,"longitude":8.931107,"country":"IT","postalCode":"16124","county":"GE","city":"Genova","address1":"Salita Santa Maria ","address2":"degli Angeli, 4R e 3N","type":"hobbyCentre","telephone":"010 2530472","seoUrl":"Warhammer-Genova","facebookId":"WarhammerGenova"},{"id":"store-gb-900072","storeId":"3215","distance":662.41,"name":"Warhammer - Verona","latitude":45.45126,"longitude":10.98805,"country":"IT","postalCode":"37126","county":"Vr","city":"Verona","address1":"via Gian Battista Da Monte 1/E","type":"hobbyCentre","telephone":"045 8013661","seoUrl":"Warhammer-Verona","facebookId":"WarhammerVerona"},{"id":"store-gb-1000462","storeId":"3224","distance":676.68,"name":"Warhammer - Girona","latitude":41.97772,"longitude":2.818623,"country":"ES","postalCode":"17002","county":"Girona","city":"Girona","address1":"Carrer Sant Joan ","address2":"Baptista de la Salle, 39","type":"hobbyCentre","telephone":"972 227 318","seoUrl":"Warhammer-Girona","facebookId":"WarhammerGirona","twitterId":"GW_Girona"},{"id":"store-gb-4700225","storeId":"L4","distance":681.66,"name":"Warhammer - Linz","latitude":48.2971818,"longitude":14.2898485,"country":"AT","postalCode":"4020","city":"Linz","address1":"Auerspergstr. 11","type":"hobbyCentre","telephone":"0043 (0) 732 600774","seoUrl":"Warhammer-Linz","facebookId":"WarhammerLinz"},{"id":"store-gb-1000448","storeId":"3205","distance":685.13,"name":"Warhammer - Zaragoza","latitude":41.64628,"longitude":-0.88054,"country":"ES","postalCode":"50008","county":"Zaragoza","city":"Zaragoza","address1":"Francisco de Vitoria, 14","type":"hobbyCentre","telephone":"976 215 742","seoUrl":"Warhammer-Zaragoza","facebookId":"GWZaragoza","twitterId":"GW_Zaragoza"},{"id":"store-gb-900080","storeId":"3210","distance":696.38,"name":"Warhammer - Padova","latitude":45.40403,"longitude":11.87928,"country":"IT","postalCode":"35123","county":"PD","city":"Padova","address1":"Via del Santo 67","type":"hobbyCentre","telephone":"049 8751651","seoUrl":"Warhammer-Padova","facebookId":"WarhammerPadova"},{"id":"store-gb-900056","storeId":"3207","distance":699.84,"name":"Warhammer - Modena","latitude":44.64386,"longitude":10.92422,"country":"IT","postalCode":"41121","county":"MO","city":"Modena","address1":"Via Francesco Selmi, 60","type":"hobbyCentre","telephone":"59237680","seoUrl":"Warhammer-Modena","facebookId":"WarhammerModena"},{"id":"store-gb-1000466","storeId":"3221","distance":709.8,"name":"Warhammer - Gaudí","latitude":41.40906,"longitude":2.174779,"country":"ES","postalCode":"08025","county":"Barcelona","city":"Barcelona","address1":"c/Castillejos 333","type":"hobbyCentre","telephone":"934 368 782","seoUrl":"Warhammer-Gaudí","facebookId":"WarhammerGaudi","twitterId":"GW_Gaudi"},{"id":"store-gb-1000438","storeId":"3216","distance":710.82,"name":"Warhammer - Roger de Lluria","latitude":41.39348,"longitude":2.1682,"country":"ES","postalCode":"08010","county":"Barcelona","city":"Barcelona","address1":"Roger de Lluria, 53","type":"hobbyCentre","telephone":"932 726 976","seoUrl":"Warhammer-Roger-de-Lluria","facebookId":"WarhammerRogerdeLluria","twitterId":"GW_Roger_Lluria"},{"id":"store-gb-1000468","storeId":"3213","distance":710.89,"name":"Warhammer - Deu i Mata","latitude":41.38909,"longitude":2.13709,"country":"ES","postalCode":"08029","county":"Barcelona","city":"Barcelona","address1":"Carrer Déu i Mata, 96","type":"hobbyCentre","telephone":"934 101 521","seoUrl":"GW-Deu-i-Mata","facebookId":"WHDeuiMata","twitterId":"GW_DiM"},{"id":"store-gb-1000496","storeId":"ZH","distance":716.1,"name":"Warhammer - Oslo","latitude":59.91405,"longitude":10.74596,"country":"NO","postalCode":"0179","city":"Oslo","address1":"Mollergata 5/9","type":"hobbyCentre","telephone":"22 33 29 90","seoUrl":"Warhammer-Oslo","facebookId":"WarhammerNorway","twitterId":"GWOslo"},{"id":"store-gb-900078","storeId":"3203","distance":721.39,"name":"Warhammer - Bologna","latitude":44.49448,"longitude":11.3401,"country":"IT","postalCode":"40121","county":"BO","city":"Bologna","address1":"Piazza Roosevelt 4","type":"hobbyCentre","telephone":"051 65 69 825","seoUrl":"Warhammer-Bologna","facebookId":"WarhammerBologna"},{"id":"store-gb-900186","storeId":"GWK7","distance":738.2,"name":"Warhammer - Klagenfurt","latitude":46.6232,"longitude":14.3095,"country":"AT","postalCode":"9020","city":"Klagenfurt","address1":"8.-Mai-Str. 15","type":"hobbyCentre","telephone":"0463 503041","seoUrl":"Warhammer-Klagenfurt","facebookId":"WarhammerKlagenfurt"},{"id":"store-gb-11300009","storeId":"D32G1","distance":768.01,"name":"Warhammer - Graz","latitude":47.0690742,"longitude":15.4400881,"country":"AT","postalCode":"8010","city":"Graz","address1":"Hamerlinggasse 4","type":"hobbyCentre","telephone":"0043 316812105","seoUrl":"Warhammer-Graz","facebookId":"WarhammerGraz"},{"id":"store-gb-13100333","storeId":"D32W7","distance":770.42,"name":"Warhammer - Wien 04","latitude":48.1960574,"longitude":16.335777,"country":"AT","postalCode":"1150","city":"Wien","address1":"BahnhofCity Wien West","address2":"Shop-Nr 00.Sh.011","address3":"Europaplatz 2","type":"hobbyCentre","telephone":"0043 1 5223178","seoUrl":"Warhammer-Vienna-04","facebookId":"WarhammerWienWestbahnhof"},{"id":"store-gb-900184","storeId":"GWW4","distance":774.25,"name":"Warhammer - Wien 02","latitude":48.18521,"longitude":16.41939,"country":"AT","postalCode":"1110","city":"Wien","address1":"Gasometer-City Turm A-A30","address2":"Guglgasse 8","type":"hobbyCentre","telephone":"43 17431038","seoUrl":"Warhammer-Wien-02","facebookId":"WarhammerWien2"},{"id":"store-gb-1000464","storeId":"3207","distance":784.36,"name":"Warhammer - Bernabéu","latitude":40.45648,"longitude":-3.68945,"country":"ES","postalCode":"28036","county":"Madrid","city":"Madrid","address1":"Calle Panamá, 2","type":"hobbyCentre","telephone":"914 578 381","seoUrl":"Warhammer-Bernabéu","facebookId":"WarhammerBernabeu","twitterId":"GW_Bernabeu"},{"id":"store-gb-1000458","storeId":"3202","distance":786.32,"name":"Warhammer - Argüelles","latitude":40.43132,"longitude":-3.71454,"country":"ES","postalCode":"28015","county":"Madrid","city":"Madrid","address1":"Andrés Mellado, 10","type":"hobbyCentre","telephone":"915 442 292","seoUrl":"Warhammer-Argüelles","facebookId":"WarhammerArguellesOficial","twitterId":"GW_Arguelles"},