{"data":[{"id":6,"code":"SCX8","name":"Transmart MX Malang","latitude":"-7.95677690","longitude":"112.61818380","address":"Jl. Veteran No. 8 Malang, Penanggungan Kec. Klojen Kota Malang 65145, Lantai Dasar Unit GF-01","city":"Malang","operation_hour":"Mon - Thu : 09.30 - 21.30<br>Fri - Sun : 09.00 - 22.00","facility":{"store_location_id":6,"fullhour":0,"drive_thru":0,"mobile_payment":0,"oven_warmed":0,"reserve":0,"wifi":0},"phone":null,"place_id":null,"distance":1330.0871224487473,"status":1},{"id":16,"code":"SC6E","name":"Kenjeran Surabaya","latitude":"-7.25170100","longitude":"112.79032500","address":"Jl. Kenjeran No. 550 Kelurahan Kalijudan Kecamatan Sukolilo Surabaya","city":"Surabaya","operation_hour":"Mon - Sun : 07.00 - 22.00","facility":{"store_location_id":16,"fullhour":0,"drive_thru":0,"mobile_payment":0,"oven_warmed":0,"reserve":0,"wifi":0},"phone":null,"place_id":null,"distance":1276.121746510667,"status":1},{"id":18,"code":"SC5N","name":"Jemursari Surabaya","latitude":"-7.32107600","longitude":"112.74621000","address":"Jalan Jemur Sari No. 132 Kecamatan Wonocolo Kel. Jemur Wonosari Surabaya 60237","city":"Surabaya","operation_hour":"Mon - Sun : 07.00 - 22.00","facility":{"store_location_id":18,"fullhour":0,"drive_thru":0,"mobile_payment":0,"oven_warmed":0,"reserve":0,"wifi":0},"phone":null,"place_id":null,"distance":1283.9741299186924,"status":1},{"id":20,"code":"SC5Z","name":"Tabanan Bali","latitude":"-8.55228900","longitude":"115.13076200","address":"Jl. Bypas Kediri No. 88 E Banjar Anyar Kecamatan Kediri Kabupaten Tabanan Bali 82121","city":"Bali","operation_hour":"Mon - Sun : 09.00 - 21.00","facility":{"store_location_id":20,"fullhour":0,"drive_thru":0,"mobile_payment":0,"oven_warmed":0,"reserve":0,"wifi":0},"phone":null,"place_id":null,"distance":1139.7831326466298,"status":1},{"id":21,"code":"SC5Y","name":"DP Mall Semarang","latitude":"-6.98294100","longitude":"110.41208000","address":"Unit G 01 Lantai Dasar Jl. Pemuda No, 150 Sekayu Kec Semarang Tengah Semarang 50132","city":"Semarang","operation_hour":"Mon - Thu : 8.30 - 22.00<br>Fri - Sun 8.00 - 22.00","facility":{"store_location_id":21,"fullhour":0,"drive_thru":0,"mobile_payment":0,"oven_warmed":0,"reserve":0,"wifi":0},"phone":null,"place_id":null,"distance":1503.471784903682,"status":1},{"id":22,"code":"SC4E","name":"DT Teuku Umar Bali","latitude":"-8.68140900","longitude":"115.18956000","address":"Jl. Teuku Umar Barat Desa Padang Sambian Klod Denpasar Barat","city":"Bali","operation_hour":"Mon - Sun : 08.00 - 21.00","facility":{"store_location_id":22,"fullhour":0,"drive_thru":0,"mobile_payment":0,"oven_warmed":0,"reserve":0,"wifi":0},"phone":null,"place_id":null,"distance":1144.0926105519789,"status":1},{"id":34,"code":"SC4Y","name":"Malang Ijen","latitude":"-7.96456410","longitude":"112.62526420","address":"Starbucks Malang Ijen Jalan Ijen No. 82 Gading Kasri, Klojen Malang 65115","city":"Malang","operation_hour":"Mon - Thu : 07.00 - 22.00<br>Fri - Sun : 07.00 - 23.00","facility":{"store_location_id":34,"fullhour":0,"drive_thru":0,"mobile_payment":0,"oven_warmed":0,"reserve":0,"wifi":0},"phone":null,"place_id":null,"distance":1329.838645899114,"status":1},{"id":38,"code":"SC5I","name":"Dprima Hotel Makassar","latitude":"-5.15435250","longitude":"119.43618580","address":"Starbucks D\u2019Prima Hotel Makassar Jalan Pelita Raya No. 8 Bua Kana Rappocini Makassar 90231","city":"Makassar","operation_hour":"Mon - Sun : 07.00 \u2013 21.00","facility":{"store_location_id":38,"fullhour":0,"drive_thru":0,"mobile_payment":0,"oven_warmed":0,"reserve":0,"wifi":0},"phone":null,"place_id":null,"distance":533.1380778505584,"status":1},{"id":48,"code":"SC4A","name":"DT Megamas Manado","latitude":"1.48737520","longitude":"124.83439770","address":"Starbucks DT Megamas Manado Jl. Abdurrahman Wahid Megamas Blok III C Kel Wenang Selatan Kecamatan Wenang Manado","city":"Manado","operation_hour":"Mon - Sun : 08.00 - 23.00","facility":{"store_location_id":48,"fullhour":0,"drive_thru":0,"mobile_payment":0,"oven_warmed":0,"reserve":0,"wifi":0},"phone":null,"place_id":null,"distance":432.0745684706504,"status":1},{"id":56,"code":"SC4V","name":"Ngaliyan Semarang","latitude":"-7.00173840","longitude":"110.34075000","address":"Starbucks Ngaliyan Semarang  Citadel Square Jl. Prof Hamka No. 105 Kelurahan Ngaliyan Kecamatan Ngaliyan Semarang","city":"Semarang","operation_hour":"Mon - Sun : 09.00 - 21.00","facility":{"store_location_id":56,"fullhour":0,"drive_thru":0,"mobile_payment":0,"oven_warmed":0,"reserve":0,"wifi":0},"phone":null,"place_id":null,"distance":1511.5654591124116,"status":1},{"id":57,"code":"SC4X","name":"Ngagel Surabaya","latitude":"-7.29342630","longitude":"112.75976400","address":"Starbucks Ngagel  Jalan Ngagel Jaya Selatan No. 153  Surabaya 60284","city":"Surabaya","operation_hour":"Mon - Sun : 06.00 - 22.00","facility":{"store_location_id":57,"fullhour":0,"drive_thru":0,"mobile_payment":0,"oven_warmed":0,"reserve":0,"wifi":0},"phone":null,"place_id":null,"distance":1281.23781076883,"status":1},{"id":60,"code":"SC4Q","name":"Sudirman Bali","latitude":"-8.67265120","longitude":"115.21783730","address":"Starbucks Coffee Sudirman Bali  Jln. P.B. Sudirman No. 6, Dauh Puri Kelod, West Denpasar Denpasar City - Bali 80234 Indonesia","city":"Bali","operation_hour":"Mon - Sun : 08.00 - 21.00","facility":{"store_location_id":60,"fullhour":0,"drive_thru":0,"mobile_payment":0,"oven_warmed":0,"reserve":0,"wifi":0},"phone":null,"place_id":null,"distance":1141.0975752876261,"status":1},{"id":61,"code":"SC4J","name":"Labuan Bajo","latitude":"-8.48998670","longitude":"119.87566680","address":"Starbucks Labuan Bajo  Labuan Bajo Marina & Executive Port Ground Floor GF - A1 Jl Soekarno Hatta Labuan Bajo Manggarai Barat Labuan Bajo 86754","city":"NTT","operation_hour":"Mon - Sun : 08.30 - 21.00","facility":{"store_location_id":61,"fullhour":0,"drive_thru":0,"mobile_payment":0,"oven_warmed":0,"reserve":0,"wifi":0},"phone":null,"place_id":null,"distance":806.3527056252778,"status":1},{"id":62,"code":"SC4R","name":"Gresik Icon","latitude":"-7.16706470","longitude":"112.60082670","address":"Starbucks Gresik Icon  Gresik Green Garden Superblock Marketing Gallery Gresik Icon Apartment (GIA) Jalan Dr Wahidin Sudirohusodo 788  Gresik 61124","city":"Gresik","operation_hour":"Mon - Sun : 08.00 - 22.00","facility":{"store_location_id":62,"fullhour":0,"drive_thru":0,"mobile_payment":0,"oven_warmed":0,"reserve":0,"wifi":0},"phone":null,"place_id":null,"distance":1290.5735159519659,"status":1},{"id":63,"code":"SC4H","name":"Trans Studio Mall Bali","latitude":"-8.70242270","longitude":"115.18419160","address":"Starbucks Trans Studio Mall Bali  Ground Floor Unit G-1 Jalan Imam Bonjol Pemecutan klod Denpasar Barat Denpasar 80119","city":"Bali","operation_hour":"Mon - Sun : 10.00 - 10.00","facility":{"store_location_id":63,"fullhour":0,"drive_thru":0,"mobile_payment":0,"oven_warmed":0,"reserve":0,"wifi":0},"phone":null,"place_id":null,"distance":1146.0596505877695,"status":1},{"id":67,"code":"SC3R","name":"Galaxy Mall 3 (Reserve Store)","latitude":"-7.27582510","longitude":"112.78093790","address":"Starbucks Galaxy Mall 3 Reserve Surabaya. GF 324-326-326A. Jl. H. Soekarno 178. Surabaya.","city":"Surabaya","operation_hour":"Mon - Sun : 09.00 - 22.00","facility":{"store_location_id":67,"fullhour":0,"drive_thru":0,"mobile_payment":0,"oven_warmed":0,"reserve":0,"wifi":0},"phone":null,"place_id":null,"distance":1278.2663535693541,"status":1},{"id":72,"code":"SC3T","name":"Supadio Pontianak Airport","latitude":"-0.14673380","longitude":"109.40434460","address":"Starbucks Pontianak Airport  Jalan Arteri Supadio KM 17 Kubu Raya Sungai Raya Pontianak 78381","city":"Pontianak","operation_hour":"Mon - Sun : 10.00 \u2013 22.00","facility":{"store_location_id":72,"fullhour":0,"drive_thru":0,"mobile_payment":0,"oven_warmed":0,"reserve":0,"wifi":0},"phone":null,"place_id":null,"distance":1524.4557964971605,"status":1},{"id":75,"code":"SC3U","name":"MERR Surabaya","latitude":"-7.31432660","longitude":"112.78108470","address":"Starbucks MERR Surabaya  Jalan Dr. Ir H Soekarno No. 351 Kedung Baruk Rungkut Surabaya 60298","city":"Surabaya","operation_hour":"Mon - Sun : 07.00 - 22.00","facility":{"store_location_id":75,"fullhour":0,"drive_thru":0,"mobile_payment":0,"oven_warmed":0,"reserve":0,"wifi":0},"phone":null,"place_id":null,"distance":1280.2124516211338,"status":1},{"id":76,"code":"SC3N","name":"HOS Cokroaminoto Pontianak","latitude":"-0.02783060","longitude":"109.33356640","address":"Starbucks HOS Cokroaminoto Pontianak  Jl HOS Cokroaminoto no.274. kel Darat Sekip Kec Pontianak","city":"Pontianak","operation_hour":"Mon - Thu : 07.00 \u2013 21.00<br>Fri - Sun : 07.00 \u2013 22.00","facility":{"store_location_id":76,"fullhour":0,"drive_thru":0,"mobile_payment":0,"oven_warmed":0,"reserve":0,"wifi":0},"phone":null,"place_id":null,"distance":1534.0511056387195,"status":1},{"id":84,"code":"SC3H","name":"Kota Araya Malang","latitude":"-7.93639790","longitude":"112.65111540","address":"Starbucks Kota Araya Malang  Area halaman luar Plaza Araya Jalan Panji Suroso Purwodadi Blimbing Malang 65126","city":"Malang","operation_hour":"Mon - Sun : 07.00 - 22.00","facility":{"store_location_id":84,"fullhour":0,"drive_thru":0,"mobile_payment":0,"oven_warmed":0,"reserve":0,"wifi":0},"phone":null,"place_id":null,"distance":1325.814475487607,"status":1},{"id":86,"code":"SC2Z","name":"Sleman City Hall","latitude":"-7.72060440","longitude":"110.36154520","address":"Starbucks Sleman City Hall  Sleman City Hall Pavilion of Jogja Lantai GF Unit 35 Jalan Magelang KM 9.6 Tridadi Sleman Yogyakarta 55511","city":"Yogyakarta","operation_hour":"Mon - Sun : 10.00 \u2013 22.00","facility":{"store_location_id":86,"fullhour":0,"drive_thru":0,"mobile_payment":0,"oven_warmed":0,"reserve":0,"wifi":0},"phone":null,"place_id":null,"distance":1540.2430262211135,"status":1},{"id":88,"code":"SC3F","name":"Grage Mall","latitude":"-6.71336460","longitude":"108.55185080","address":"Starbucks Grage Mall  Jalan Tentara Pelajar No. 1 Cirebon 42131","city":"Cirebon","operation_hour":"Mon - Sun : 09.30 \u2013 21.00","facility":{"store_location_id":88,"fullhour":0,"drive_thru":0,"mobile_payment":0,"oven_warmed":0,"reserve":0,"wifi":0},"phone":null,"place_id":null,"distance":1687.1244550845163,"status":1},{"id":92,"code":"SC3D","name":"Plaza Surabaya","latitude":"-7.26536250","longitude":"112.74859350","address":"Starbucks Plaza Surabaya  Jl. Pemuda No. 33-37 Surabaya 60271","city":"Surabaya","operation_hour":"Mon - Sun : 08.00 - 22.00","facility":{"store_location_id":92,"fullhour":0,"drive_thru":0,"mobile_payment":0,"oven_warmed":0,"reserve":0,"wifi":0},"phone":null,"place_id":null,"distance":1280.9117181046324,"status":1},{"id":93,"code":"SC2W","name":"Ubud Monkey Forest","latitude":"-8.51295750","longitude":"115.26083680","address":"Starbucks Ubud Monkey Forest  Pertiwi Resort and Spa Jalan Monkey Forest, Ubud Kabupaten Gianyar Gianyar 80571","city":"Bali","operation_hour":"Mon - Sun : 08.00 - 21.30","facility":{"store_location_id":93,"fullhour":0,"drive_thru":0,"mobile_payment":0,"oven_warmed":0,"reserve":0,"wifi":0},"phone":null,"place_id":null,"distance":1126.0050518872695,"status":1},{"id":102,"code":"SC2P","name":"GWK Bali","latitude":"-8.80931930","longitude":"115.16713950","address":"Starbucks GWK Bali  Cultural Park Jl. Raya Uluwatu Ungasan Kuta Selatan Badung 80364","city":"Jakarta","operation_hour":"Mon - Sun : 09.30 - 20.00","facility":{"store_location_id":102,"fullhour":0,"drive_thru":0,"mobile_payment":0,"oven_warmed":0,"reserve":0,"wifi":0},"phone":null,"place_id":null,"distance":1155.2395360018324,"status":1},{"id":110,"code":"SC2F","name":"Grand Pakuwon","latitude":"-7.25004140","longitude":"112.66249790","address":"Starbucks Grand Pakuwon  Food Junction Ground Floor Unit 02 Jl. Grand Banjar Boulevard, Banjar Sugihan, Tandes Surabaya 60184","city":"Surabaya","operation_hour":"Mon - Sun : 11.00 - 22.00","facility":{"store_location_id":110,"fullhour":0,"drive_thru":0,"mobile_payment":0,"oven_warmed":0,"reserve":0,"wifi":0},"phone":null,"place_id":null,"distance":1288.6080972396892,"status":1},{"id":114,"code":"SC2C","name":"Gatsu Barat Bali","latitude":"-8.63686150","longitude":"115.21471740","address":"Starbucks Gatsu Barat Bali  Jalan Gatot Subroto No. 346 Denpasar","city":"Bali","operation_hour":"Mon - Sun : 08.00 - 21.00","facility":{"store_location_id":114,"fullhour":0,"drive_thru":0,"mobile_payment":0,"oven_warmed":0,"reserve":0,"wifi":0},"phone":null,"place_id":null,"distance":1138.774448999024,"status":1},{"id":116,"code":"SC1U","name":"Tunjungan Plaza 2","latitude":"-7.26332500","longitude":"112.73997800","address":"Starbucks Tunjungan Plaza 2  UG Floor LC UG 27-29 Jalan Basuki Rahmat No. 7 Kedungdoro Genteng Surabaya 60271","city":"Surabaya","operation_hour":"Mon - Sat : 10.00 - 22.00<br>Sun L 08.00 - 22.00","facility":{"store_location_id":116,"fullhour":0,"drive_thru":0,"mobile_payment":0,"oven_warmed":0,"reserve":0,"wifi":0},"phone":null,"place_id":null,"distance":1281.6551743972727,"status":1},{"id":120,"code":"SC1F","name":"Sun City Sidoarjo","latitude":"-7.44923340","longitude":"112.71005580","address":"Starbucks Sun City Sidoarjo Jalan Pahlawan no.I Kawasan Suncity Plaza Sidokumpul Sidoarjo","city":"Surabaya","operation_hour":"Mon - Sun : 10.00 - 22.00","facility":{"store_location_id":120,"fullhour":0,"drive_thru":0,"mobile_payment":0,"oven_warmed":0,"reserve":0,"wifi":0},"phone":null,"place_id":null,"distance":1294.0941506459674,"status":1},{"id":124,"code":"SC1O","name":"Solo Square","latitude":"-7.56025930","longitude":"110.78905830","address":"Starbucks Solo Square  Jalan Brigjen Slamet Riyadi No. 451 - 455 Kelurahan Pajang Kecamatan Laweyan Surakarta 57146","city":"Solo","operation_hour":"Mon - Sun : 10.00 - 22.00","facility":{"store_location_id":124,"fullhour":0,"drive_thru":0,"mobile_payment":0,"oven_warmed":0,"reserve":0,"wifi":0},"phone":null,"place_id":null,"distance":1489.957338614173,"status":1},{"id":127,"code":"SC1L","name":"Transmart Kawanua Manado","latitude":"1.50305380","longitude":"124.90025090","address":"Starbucks Transmart Kawanua Manado Ground Floor Unit GF - 22  Jalan A A Maramis  Kecamatan Mapanget Kelurahan Kairagi Dua  Manado 95254","city":"Manado","operation_hour":"Mon - Sun : 09.00 - 21.00","facility":{"store_location_id":127,"fullhour":0,"drive_thru":0,"mobile_payment":0,"oven_warmed":0,"reserve":0,"wifi":0},"phone":null,"place_id":null,"distance":437.10310300765553,"status":1},{"id":130,"code":"SC1H","name":"BG Junction","latitude":"-7.25558640","longitude":"112.73390270","address":"Starbucks BG Junction  Jalan Kranggan No. 8 A Bubutan Surabaya 60174","city":"Surabaya","operation_hour":"Mon - Sun : 08.00 - 22.00","facility":{"store_location_id":130,"fullhour":0,"drive_thru":0,"mobile_payment":0,"oven_warmed":0,"reserve":0,"wifi":0},"phone":null,"place_id":null,"distance":1281.8616663050213,"status":1},{"id":135,"code":"SC0T","name":"Lombok Airport","latitude":"-8.76161620","longitude":"116.27385200","address":"Starbucks Lombok Airport Lombok International Airport Boarding Area  Jl. By Pass Bil Praya, Kel. Tanak Awu Kec. Pujut, Lombok Tengah Nusa Tenggara Barat 83537","city":"Lombok","operation_hour":"Mon - Sun : 04.30 - 18.00","facility":{"store_location_id":135,"fullhour":0,"drive_thru":0,"mobile_payment":0,"oven_warmed":0,"reserve":0,"wifi":0},"phone":null,"place_id":null,"distance":1062.707729533756,"status":1},{"id":136,"code":"SC2Q","name":"Gadjahmada Semarang","latitude":"-6.98512690","longitude":"110.42197770","address":"Starbucks Gadjahmada Semarang  Jl. Gadjahmada No. 111, Miroto, Semarang Tengah,  Semarang 50249","city":"Semarang","operation_hour":"Mon - Sun : 07.00 \u2013 23.00","facility":{"store_location_id":136,"fullhour":0,"drive_thru":0,"mobile_payment":0,"oven_warmed":0,"reserve":0,"wifi":0},"phone":null,"place_id":null,"distance":1502.5426834774091,"status":1},{"id":137,"code":"SC2G","name":"Gubeng","latitude":"-7.27213300","longitude":"112.74893690","address":"Starbucks Gubeng  Jl. Raya Gubeng No. 33 Kecamatan Gubeng Kelurahan Gubeng Surabaya 60281","city":"Surabaya","operation_hour":"Mon - Sun : 07.00 - 23.00","facility":{"store_location_id":137,"fullhour":0,"drive_thru":0,"mobile_payment":0,"oven_warmed":0,"reserve":0,"wifi":0},"phone":null,"place_id":null,"distance":1281.2205131698208,"status":1},{"id":141,"code":"SC3S","name":"Lambung Mangkurat Banjarmasin","latitude":"-3.32527320","longitude":"114.59090870","address":"Starbucks Lambung Mangkurat  Lobby GF & 1st Floor, Area Komersial Kantor Pos Banjarmasin, Jl. Lambung Mangkurat, Banjarmasin, 70111","city":"Banjarmasin","operation_hour":"Mon - Sun : 08.30 \u2013 22.00","facility":{"store_location_id":141,"fullhour":0,"drive_thru":0,"mobile_payment":0,"oven_warmed":0,"reserve":0,"wifi":0},"phone":null,"place_id":null,"distance":946.6353207032563,"status":1},{"id":142,"code":"SC1Q","name":"Dewata (Reserve Store)","latitude":"-8.69171360","longitude":"115.17314340","address":"Starbucks Dewata (Reserve Store) Jl. Sunset Road No.77, Seminyak, Kuta, Kabupaten Badung, Bali 80361","city":"Bali","operation_hour":"Mon - Sun : 08.00 - 22.00","facility":{"store_location_id":142,"fullhour":0,"drive_thru":0,"mobile_payment":0,"oven_warmed":0,"reserve":0,"wifi":0},"phone":null,"place_id":null,"distance":1146.20883964368,"status":1},{"id":146,"code":"SC0U","name":"Central Plaza Samarinda","latitude":"-0.50346190","longitude":"117.15496770","address":"Starbucks Central Plaza Samarinda  Jalan Pulau Irian No. 1. L1 # 116 & 117 Samarinda Kota Kalimantan Timur 75113","city":"Samarinda","operation_hour":"Mon - Sun : 10.00 \u2013 22.00","facility":{"store_location_id":146,"fullhour":0,"drive_thru":0,"mobile_payment":0,"oven_warmed":0,"reserve":0,"wifi":0},"phone":null,"place_id":null,"distance":669.0468130537186,"status":1},{"id":155,"code":"SC0G","name":"Manyar Kertoarjo","latitude":"-7.27974900","longitude":"112.76743270","address":"Starbucks Manyar Kertoarjo Jalan Manyar Kertoarjo No. 33 A Kelurahan Mojo Kecamatan Gubeng Surabaya 60285","city":"Surabaya","operation_hour":"Mon - Sun : 07.00 - 22.00","facility":{"store_location_id":155,"fullhour":0,"drive_thru":0,"mobile_payment":0,"oven_warmed":0,"reserve":0,"wifi":0},"phone":null,"place_id":null,"distance":1279.7907903651396,"status":1},{"id":158,"code":"SC0J","name":"Java Supermall","latitude":"-7.00620300","longitude":"110.43210300","address":"Starbucks Java Supermall  Java Supermal 1st Floors No. 102 Jl. Letjen MT Haryono No. 992 - 994 Lamper Kidul Semarang Selatan Semarang 50249","city":"Semarang","operation_hour":"Mon - Sun : 09.00 - 21.30","facility":{"store_location_id":158,"fullhour":0,"drive_thru":0,"mobile_payment":0,"oven_warmed":0,"reserve":0,"wifi":0},"phone":null,"place_id":null,"distance":1502.3570464006266,"status":1},{"id":160,"code":"SC0O","name":"Tunjungan Plaza 6","latitude":"-7.26186600","longitude":"112.73795690","address":"Starbucks Tunjungan Plaza 6  4th Floors Unit 21-22 Jalan Basuki Rahmat 8-12 Surabaya 60261","city":"Surabaya","operation_hour":"Mon - Sun : 10.00 - 22.00","facility":{"store_location_id":160,"fullhour":0,"drive_thru":0,"mobile_payment":0,"oven_warmed":0,"reserve":0,"wifi":0},"phone":null,"place_id":null,"distance":1281.780087598663,"status":1},{"id":162,"code":"SC0N","name":"Ngurah Rai Domestic Boarding","latitude":"-8.74465660","longitude":"115.16240460","address":"Starbucks Ngurah Rai Domestic Boarding Boarding Domestic Departure R11 & F14 Jalan Raya Gusti Ngurah Rai, Kuta 80362","city":"Bali","operation_hour":"Mon - Sun : 05.30 - 22.00","facility":{"store_location_id":162,"fullhour":0,"drive_thru":0,"mobile_payment":0,"oven_warmed":0,"reserve":0,"wifi":0},"phone":null,"place_id":null,"distance":1150.934406653974,"status":1},{"id":164,"code":"SC0A","name":"Jogja Airport","latitude":"-7.78557420","longitude":"110.43625680","address":"Starbucks Jogja Airport Arrival Domestic Lobby Terminal A Bandar Udara Adisutjipto Jl. Raya Solo KM 9 Maguwoharjo Yogyakarta 55282","city":"Yogyakarta","operation_hour":"Mon - Sun : 05.30 \u2013 18.00","facility":{"store_location_id":164,"fullhour":0,"drive_thru":0,"mobile_payment":0,"oven_warmed":0,"reserve":0,"wifi":0},"phone":null,"place_id":null,"distance":1535.6992260354275,"status":1},{"id":167,"code":"SCZ8","name":"Duta Mall Banjarmasin","latitude":"-3.32334920","longitude":"114.60297490","address":"Starbucks Duta Mall Banjarmasin  Jl ahmad yani km2 melayu banjarmasin tengah 70234 Banjarmasin","city":"Banjarmasin","operation_hour":"Mon - Sun : 10.00 \u2013 22.00","facility":{"store_location_id":167,"fullhour":0,"drive_thru":0,"mobile_payment":0,"oven_warmed":0,"reserve":0,"wifi":0},"phone":null,"place_id":null,"distance":945.2789672499041,"status":1},{"id":170,"code":"SCZ9","name":"Phinisi Point Makassar","latitude":"-5.15213140","longitude":"119.40419640","address":"Starbucks Phinisi Point Makassar  Ground Floors Unit GF-01  Jalan Metro Tanjung Bunga No 2   Makassar 90212","city":"Makassar","operation_hour":"Mon - Sun : 10.00 - 21.00","facility":{"store_location_id":170,"fullhour":0,"drive_thru":0,"mobile_payment":0,"oven_warmed":0,"reserve":0,"wifi":0},"phone":null,"place_id":null,"distance":535.6118526153535,"status":1},{"id":175,"code":"SCX5","name":"Plaza Renon","latitude":"-8.67326780","longitude":"115.24439500","address":"Starbucks Plaza Renon  Ground Floors Unit 6,7 Jalan Raya Puputan No.210 Sumetra Kelod, Denpasar TIM Kota Denpasar, Bali 80239","city":"Bali","operation_hour":"Mon - Sun : 09.00 - 22.00","facility":{"store_location_id":175,"fullhour":0,"drive_thru":0,"mobile_payment":0,"oven_warmed":0,"reserve":0,"wifi":0},"phone":null,"place_id":null,"distance":1138.9265006272956,"status":1},{"id":179,"code":"SCZ2","name":"SOGO Pakuwon","latitude":"-7.29079700","longitude":"112.67438700","address":"Starbucks SOGO Pakuwon  SOGO Unit SGSPI LG#01 Supermall Pakuwon Indah  Jl. Puncak Lontar Indah II Surabaya","city":"Surabaya","operation_hour":"Mon - Sun : 10.00 - 22.00","facility":{"store_location_id":179,"fullhour":0,"drive_thru":0,"mobile_payment":0,"oven_warmed":0,"reserve":0,"wifi":0},"phone":null,"place_id":null,"distance":1289.4876983860543,"status":1},{"id":181,"code":"SCZ1","name":"Lenmarc Surabaya","latitude":"-7.28502600","longitude":"112.68161800","address":"Starbucks Lenmarc Surabaya  Lenmarc Mall Unit GF-01 Jl. Bukit Darmo Boulevard No.9 Surabaya 60226 Kec. Dukuh Pakis Kel. Pradah Kalikendal","city":"Surabaya","operation_hour":"Mon - Sun : 08.00 - 22.00","facility":{"store_location_id":181,"fullhour":0,"drive_thru":0,"mobile_payment":0,"oven_warmed":0,"reserve":0,"wifi":0},"phone":null,"place_id":null,"distance":1288.4858537081625,"status":1},{"id":186,"code":"SCT3","name":"By Pass Ngurah Rai Bali","latitude":"-8.73094190","longitude":"115.17843870","address":"Starbucks By. Pass Ngurah Rai  Jl. By Pass Ngurah Rai Bali Indonesia","city":"Bali","operation_hour":"Mon - Sun : 07.30 - 21.00","facility":{"store_location_id":186,"fullhour":0,"drive_thru":0,"mobile_payment":0,"oven_warmed":0,"reserve":0,"wifi":0},"phone":null,"place_id":null,"distance":1148.604071711205,"status":1},{"id":188,"code":"SCY2","name":"Villa Taman Telaga Surabaya","latitude":"-7.29620950","longitude":"112.65433230","address":"Starbucks Villa Taman Telaga Surabaya Komp. Perum Citraland Surya Villa Taman Telaga Blok TJ-1 Kav. 33 Surabaya","city":"Surabaya","operation_hour":"Mon - Sun : 06.00 - 22.00","facility":{"store_location_id":188,"fullhour":0,"drive_thru":0,"mobile_payment":0,"oven_warmed":0,"reserve":0,"wifi":0},"phone":null,"place_id":null,"distance":1291.7318703965832,"status":1},{"id":191,"code":"SCY1","name":"Uttara Yogya","latitude":"-7.75847600","longitude":"110.38152630","address":"Starbucks Uttara Yogya  Jl. Kaliurang km 5.3 No.7 Caturtunggal, D.I Yogyakarta 55281","city":"Yogyakarta","operation_hour":"Mon - Sun : 06.30 \u2013 23.00","facility":{"store_location_id":191,"fullhour":0,"drive_thru":0,"mobile_payment":0,"oven_warmed":0,"reserve":0,"wifi":0},"phone":null,"place_id":null,"distance":1539.9543200566764,"status":1},{"id":203,"code":"SCV7","name":"Malioboro","latitude":"-7.79481600","longitude":"110.36539100","address":"Malioboro 41 Jl. Malioboro No.41 RT 31 RW 8 Sosromenduran Gedongtengten Yogyakarta","city":"Yogyakarta","operation_hour":"Mon - Sat : 08.00 - 23.30<br>Sun : 07.00 - 23.00","facility":{"store_location_id":203,"fullhour":0,"drive_thru":0,"mobile_payment":0,"oven_warmed":0,"reserve":0,"wifi":0},"phone":null,"place_id":null,"distance":1543.234999921297,"status":1},{"id":206,"code":"SCV3","name":"Level 21 Bali","latitude":"-8.66949800","longitude":"115.21385100","address":"Starbucks Level 21 Mall, Jl. Tengku Umar No. 1  Kav 32 - 34, Denpasar, Bali","city":"Bali","operation_hour":"Mon - Sun : 09.30 - 22.00","facility":{"store_location_id":206,"fullhour":0,"drive_thru":0,"mobile_payment":0,"oven_warmed":0,"reserve":0,"wifi":0},"phone":null,"place_id":null,"distance":1141.2025091164148,"status":1},{"id":216,"code":"SCU6","name":"Rest Area KM 22 Tol Semarang-Solo","latitude":"-7.12906600","longitude":"110.42380800","address":"Starbucks Rest Area KM 22+200, Tol Semarang-Solo","city":"Semarang","operation_hour":"Mon - Thu : 06.00 - 22.00<br>Fri - Sat : 06.00 - 24.00<br>Sun : 06.00 - 22.00","facility":{"store_location_id":216,"fullhour":0,"drive_thru":0,"mobile_payment":0,"oven_warmed":0,"reserve":0,"wifi":0},"phone":null,"place_id":null,"distance":1508.2527977678405,"status":1},{"id":223,"code":"SCT4","name":"Ayani Mega Mall","latitude":"-0.05164220","longitude":"109.34304700","address":"Starbucks Ayani Megamall, Unit BG - 06,07, Jl. Jend. Ahmad Yani, Pontianak","city":"Pontianak","operation_hour":"Mon - Sun : 09.00 \u2013 22.00","facility":{"store_location_id":223,"fullhour":0,"drive_thru":0,"mobile_payment":0,"oven_warmed":0,"reserve":0,"wifi":0},"phone":null,"place_id":null,"distance":1532.638975733604,"status":1},{"id":232,"code":"SCS6","name":"Malang City Point","latitude":"-7.97356000","longitude":"112.61183800","address":"Starbucks Malang City Point, 1st Floors Unit 1,1A, Jl. Raya Dieng No. 31, Malang","city":"Malang","operation_hour":"Mon - Sun : 10.00 - 22.00","facility":{"store_location_id":232,"fullhour":0,"drive_thru":0,"mobile_payment":0,"oven_warmed":0,"reserve":0,"wifi":0},"phone":null,"place_id":null,"distance":1331.6184828681908,"status":1},{"id":233,"code":"SCS5","name":"Canggu","latitude":"-8.66329530","longitude":"115.14552980","address":"Starbucks Canggu, Ground Floors, Jl. Subak Sari, Bali","city":"Bali","operation_hour":"Mon - Sun : 06.30 \u2013 21.00","facility":{"store_location_id":233,"fullhour":0,"drive_thru":0,"mobile_payment":0,"oven_warmed":0,"reserve":0,"wifi":0},"phone":null,"place_id":null,"distance":1146.4741307706627,"status":1},{"id":235,"code":"SCS3","name":"Penta City","latitude":"-1.27451600","longitude":"116.85693000","address":"Starbucks Pentacity Shopping Venue, Ground Floors #1 & 2, Jl. Jend. Sudirman No. 47, Balikpapan","city":"Balikpapan","operation_hour":"Mon - Sun : 10.00 \u2013 22.00","facility":{"store_location_id":235,"fullhour":0,"drive_thru":0,"mobile_payment":0,"oven_warmed":0,"reserve":0,"wifi":0},"phone":null,"place_id":null,"distance":686.7524339655257,"status":1},{"id":236,"code":"SCS1","name":"Tunjungan Plaza 5","latitude":"-7.26145000","longitude":"112.73899300","address":"Starbucks Tunjungan Plaza 5, Fashion Avenue, 3rd Floors Unit 11, Jl. Basuki Rahmat No. 8 \u2013 12, Surabaya","city":"Surabaya","operation_hour":"Mon - Sun : 10.00 - 22.00","facility":{"store_location_id":236,"fullhour":0,"drive_thru":0,"mobile_payment":0,"oven_warmed":0,"reserve":0,"wifi":0},"phone":null,"place_id":null,"distance":1281.657266314716,"status":1},{"id":237,"code":"SCR9","name":"Galeria Mall","latitude":"-7.78246900","longitude":"110.37897800","address":"Starbucks Galeria Mall, Jl. Jend Sudirman No. 99 - 101, Yogyakarta","city":"Yogyakarta","operation_hour":"Mon - Fri 7.30 - 21.00<br>Sat - Sun 9.00 - 22.00","facility":{"store_location_id":237,"fullhour":0,"drive_thru":0,"mobile_payment":0,"oven_warmed":0,"reserve":0,"wifi":0},"phone":null,"place_id":null,"distance":1541.3058689650682,"status":1},{"id":239,"code":"SCQ9","name":"Jimbaran Arcade","latitude":"-8.78251100","longitude":"115.16739200","address":"Starbucks Ruko Jimbaran Arcade, Jl. Raya Uluwan, Badung, Bali","city":"Bali","operation_hour":"Mon - Sun : 07.30 - 21.00","facility":{"store_location_id":239,"fullhour":0,"drive_thru":0,"mobile_payment":0,"oven_warmed":0,"reserve":0,"wifi":0},"phone":null,"place_id":null,"distance":1153.2670036385396,"status":1},{"id":241,"code":"SCQ5","name":"Lombok Epicentrum","latitude":"-8.59371100","longitude":"116.10474200","address":"Starbucks Lombok Epicentrum, Ground Floors # 01 & 02, Jl. Sriwijaya No. 333, Mataram","city":"Depok","operation_hour":"Mon - Sun : 10.00 - 22.00","facility":{"store_location_id":241,"fullhour":0,"drive_thru":0,"mobile_payment":0,"oven_warmed":0,"reserve":0,"wifi":0},"phone":null,"place_id":null,"distance":1062.9010729322529,"status":1},{"id":243,"code":"SCQ4","name":"Empire XXI","latitude":"-7.78360600","longitude":"110.38670900","address":"Starbucks Empire XXI, Jl. Urip Sumoharjo 104, Yogyakarta","city":"Yogyakarta","operation_hour":"Mon - Sun : 08.00 \u2013 22.00","facility":{"store_location_id":243,"fullhour":0,"drive_thru":0,"mobile_payment":0,"oven_warmed":0,"reserve":0,"wifi":0},"phone":null,"place_id":null,"distance":1540.5816459829448,"status":1},{"id":246,"code":"SCR1","name":"Hartono Mall","latitude":"-7.60111000","longitude":"110.81463800","address":"Starbucks Hartono Mall, Ground Floors, GB - 15 & 16, Jl. Arteri Ring Road Utara, Yogyakarta","city":"Yogyakarta","operation_hour":"Mon - Sun : 09.00 \u2013 22.00","facility":{"store_location_id":246,"fullhour":0,"drive_thru":0,"mobile_payment":0,"oven_warmed":0,"reserve":0,"wifi":0},"phone":null,"place_id":null,"distance":1489.2567734776933,"status":1},{"id":247,"code":"SCO6","name":"Tanah Lot","latitude":"-8.60639000","longitude":"115.10796300","address":"Starbucks Tanah Lot, Jl. By Pass Braban Nyanyi, Tabanan, Bali","city":"Bali","operation_hour":"closed","facility":{"store_location_id":247,"fullhour":0,"drive_thru":0,"mobile_payment":0,"oven_warmed":0,"reserve":0,"wifi":0},"phone":null,"place_id":null,"distance":1145.5603749136665,"status":1},{"id":249,"code":"SCR0","name":"Sam Ratulangi Airport Manado","latitude":"1.54350200","longitude":"124.92266300","address":"Starbucks Manado Airport, Jl. Mr. AA Maramis, Manado","city":"Manado","operation_hour":"Mon - Sun : 05.00 \u2013 17.00","facility":{"store_location_id":249,"fullhour":0,"drive_thru":0,"mobile_payment":0,"oven_warmed":0,"reserve":0,"wifi":0},"phone":null,"place_id":null,"distance":442.2443443120541,"status":1},{"id":252,"code":"SCQ7","name":"Pratama Tanjung Benoa","latitude":"-8.76944500","longitude":"115.22204200","address":"Starbucks Pratama Tanjung Benoa, Jl. Pratama No. 72, Nusa Dua, Bali","city":"Bali","operation_hour":"Mon - Sun : 08:00 - 22.00 (Temporary Closed until further notice)","facility":{"store_location_id":252,"fullhour":0,"drive_thru":0,"mobile_payment":0,"oven_warmed":0,"reserve":0,"wifi":0},"phone":null,"place_id":null,"distance":1147.7774401323531,"status":1},{"id":266,"code":"SCO7","name":"Big Mall","latitude":"-0.52590300","longitude":"117.11512700","address":"Starbucks Big Mall Samarinda UG 96 Jl. Untung Suropati No. 8 Samarinda","city":"Samarinda","operation_hour":"Mon - Sun : 10.00 \u2013 22.00","facility":{"store_location_id":266,"fullhour":0,"drive_thru":0,"mobile_payment":0,"oven_warmed":0,"reserve":0,"wifi":0},"phone":null,"place_id":null,"distance":672.759539435397,"status":1},{"id":269,"code":"SCO3","name":"Manado Town Square","latitude":"1.47275100","longitude":"124.83215300","address":"Starbucks Manado Town Square 3, Ground Floors Unit GF - 22,23,25, Jl. Piere Tendean Boulevard, Manado","city":"Manado","operation_hour":"Mon - Sun : 10.00 - 22.00","facility":{"store_location_id":269,"fullhour":0,"drive_thru":0,"mobile_payment":0,"oven_warmed":0,"reserve":0,"wifi":0},"phone":null,"place_id":null,"distance":430.52366449123326,"status":1},{"id":270,"code":"SCO2","name":"Graha Pena","latitude":"-7.31998300","longitude":"112.73147000","address":"Starbucks Graha Pena, 1st Floors, Jl. Ahmad Yani No. 88, Surabaya","city":"Surabaya","operation_hour":"Mon - Sun : 07.00 - 22.00","facility":{"store_location_id":270,"fullhour":0,"drive_thru":0,"mobile_payment":0,"oven_warmed":0,"reserve":0,"wifi":0},"phone":null,"place_id":null,"distance":1285.3633968696872,"status":1},{"id":271,"code":"SCO1","name":"Juanda Airport Boarding Lounge Surabaya","latitude":"-7.37856600","longitude":"112.78732100","address":"Starbucks Juanda Airport, Boarding Lounge Terminal Domestic, 2nd Floors FB-22-3, Surabaya","city":"Surabaya","operation_hour":"Mon - Sun : 04.00 - 22.00 (Temporary Closed until further notice)","facility":{"store_location_id":271,"fullhour":0,"drive_thru":0,"mobile_payment":0,"oven_warmed":0,"reserve":0,"wifi":0},"phone":null,"place_id":null,"distance":1282.8990449509574,"status":1},{"id":274,"code":"SCN8","name":"Achmad Yani Airport Semarang","latitude":"-6.97877300","longitude":"110.37820900","address":"Starbucks Airport Semarang, Jl. Puad Ahmad Yani, Semarang","city":"Semarang","operation_hour":"Mon - Sun : 08.00 - 15.00 (Temporary Closed until further notice)","facility":{"store_location_id":274,"fullhour":0,"drive_thru":0,"mobile_payment":0,"oven_warmed":0,"reserve":0,"wifi":0},"phone":null,"place_id":null,"distance":1506.786764415221,"status":1},{"id":275,"code":"SCN7","name":"Park 23 Entertainment Center","latitude":"-8.73728400","longitude":"115.17583600","address":"Starbucks Park 23, 1st Floors #L1 6, Jl. Kediri, Circus Water Park, Kuta, Bali","city":"Bali","operation_hour":"Mon - Sun : 10.00 - 22.00 (Temporary Closed until further notice)","facility":{"store_location_id":275,"fullhour":0,"drive_thru":0,"mobile_payment":0,"oven_warmed":0,"reserve":0,"wifi":0},"phone":null,"place_id":null,"distance":1149.280636340822,"status":1},{"id":280,"code":"SCN2","name":"Sultan Hasanuddin Airport Lobby Departure Makassar","latitude":"-5.07770400","longitude":"119.54948000","address":"Starbucks Makassar Airport 2, Lobby Departure, Makassar","city":"Makassar","operation_hour":"Mon - Sun : 05.30 - 20.00","facility":{"store_location_id":280,"fullhour":0,"drive_thru":0,"mobile_payment":0,"oven_warmed":0,"reserve":0,"wifi":0},"phone":null,"place_id":null,"distance":518.1152440008225,"status":1},{"id":282,"code":"SCN0","name":"Oberoi Seminyak","latitude":"-8.68401900","longitude":"115.15720800","address":"Starbucks Oberoi, Jl. Kayu Aya, Seminyak, Bali","city":"Bali","operation_hour":"Mon - Sun : 07.30 - 21.00","facility":{"store_location_id":282,"fullhour":0,"drive_thru":0,"mobile_payment":0,"oven_warmed":0,"reserve":0,"wifi":0},"phone":null,"place_id":null,"distance":1146.9869030816812,"status":1},{"id":283,"code":"SCM9","name":"The Park Solo","latitude":"-7.59900100","longitude":"110.81619600","address":"Starbucks The Park Mall Solo, Ground Floors Unit 10A, Jl. Ir. Soekarno, Solo Baru, Sukoharjo, Solo","city":"Solo","operation_hour":"Mon - Sun : 10.00 - 22.00","facility":{"store_location_id":283,"fullhour":0,"drive_thru":0,"mobile_payment":0,"oven_warmed":0,"reserve":0,"wifi":0},"phone":null,"place_id":null,"distance":1489.0035329616007,"status":1},{"id":288,"code":"SCM3","name":"Jogja City Mall","latitude":"-7.75302000","longitude":"110.36097600","address":"Starbucks Jogja City Mall, Ground Floors # 01 & 02, Jl. Magelang KM 6 No. 18, Yogyakarta","city":"Yogyakarta","operation_hour":"Mon - Sun : 10.00 \u2013 22.00","facility":{"store_location_id":288,"fullhour":0,"drive_thru":0,"mobile_payment":0,"oven_warmed":0,"reserve":0,"wifi":0},"phone":null,"place_id":null,"distance":1541.771359627552,"status":1},{"id":290,"code":"SCM0","name":"Ciputra Mall Semarang","latitude":"-6.98864200","longitude":"110.42380500","address":"Starbucks Ciputra Mall, Ground Floors, Extension Mal Tengah (Timur), Jl. Simpang Lima No. 1, Semarang","city":"Semarang","operation_hour":"Mon - Sun : 10.00 - 22.00","facility":{"store_location_id":290,"fullhour":0,"drive_thru":0,"mobile_payment":0,"oven_warmed":0,"reserve":0,"wifi":0},"phone":null,"place_id":null,"distance":1502.4971667358236,"status":1},{"id":295,"code":"SCL5","name":"Cirebon Super Block Mall","latitude":"-6.71818000","longitude":"108.54949200","address":"Starbucks Cirebon Super Block, Ground Floors I \u2013 12, Jl. Dr. Cipto Mangunkusumo No. 26, Cirebon","city":"Cirebon","operation_hour":"Mon - Sun : 10.00 - 22.00","facility":{"store_location_id":295,"fullhour":0,"drive_thru":0,"mobile_payment":0,"oven_warmed":0,"reserve":0,"wifi":0},"phone":null,"place_id":null,"distance":1687.5353825085442,"status":1},{"id":302,"code":"SCK7","name":"Rest Area KM26 Tol Gempol-Surabaya","latitude":"-7.42585500","longitude":"112.69341500","address":"Starbucks KM 26 Rest Area, Tol Gempol-Surabaya","city":"Surabaya","operation_hour":"Mon - Sun : 06.00 - 22.00","facility":{"store_location_id":302,"fullhour":0,"drive_thru":0,"mobile_payment":0,"oven_warmed":0,"reserve":0,"wifi":0},"phone":null,"place_id":null,"distance":1294.5110794591692,"status":1},{"id":306,"code":"SCK1","name":"Juanda Airport Terminal 2A Surabaya","latitude":"-7.38341300","longitude":"112.77610700","address":"Starbucks Djuanda T2A International Terminal I, Jl. Raya Juanda, Surabaya","city":"Surabaya","operation_hour":"Mon - Sun : 04.00 - 22.00, (Temporary Closed until further notice)","facility":{"store_location_id":306,"fullhour":0,"drive_thru":0,"mobile_payment":0,"oven_warmed":0,"reserve":0,"wifi":0},"phone":null,"place_id":null,"distance":1284.244513573672,"status":1},{"id":309,"code":"SCJ6","name":"Lippo Mall Kuta","latitude":"-8.73526800","longitude":"115.16706000","address":"Starbucks Lippo Mall Kuta, Ground Floors Unit No. GF\u201306, Jl. Kartika Plaza Lingkungan Segara, Bali","city":"Bali","operation_hour":"Mon - Sun : 9.30 - 21.30","facility":{"store_location_id":309,"fullhour":0,"drive_thru":0,"mobile_payment":0,"oven_warmed":0,"reserve":0,"wifi":0},"phone":null,"place_id":null,"distance":1149.8661408768949,"status":1},{"id":314,"code":"SCJ0","name":"Pantai Kuta","latitude":"-8.72065900","longitude":"115.16974600","address":"Starbucks Pantai Kuta, 1st Floors Unit Shopping Arcade Area, Hotel Mercure, Jl. Pantai Kuta, Bali","city":"Bali","operation_hour":"Mon - Sun : 07.00 - 22.00","facility":{"store_location_id":314,"fullhour":0,"drive_thru":0,"mobile_payment":0,"oven_warmed":0,"reserve":0,"wifi":0},"phone":null,"place_id":null,"distance":1148.5845416829525,"status":1},{"id":322,"code":"SCH9","name":"National Hospital","latitude":"-7.29904300","longitude":"112.67600300","address":"Starbucks National Hospital, Jl. Boulevard Famili Selatan Kav. 1, Surabaya","city":"Surabaya","operation_hour":"Mon - Sun : 07.00 - 22.00","facility":{"store_location_id":322,"fullhour":0,"drive_thru":0,"mobile_payment":0,"oven_warmed":0,"reserve":0,"wifi":0},"phone":null,"place_id":null,"distance":1289.745255469766,"status":1},{"id":332,"code":"SCG9","name":"Griya Santrian","latitude":"-8.69005700","longitude":"115.26501800","address":"Starbucks Griya Santrian, Jl. Danau Tamblingan No. 47, Sanur, Bali","city":"Bali","operation_hour":"Mon - Sun : 07.30 - 21.30","facility":{"store_location_id":332,"fullhour":0,"drive_thru":0,"mobile_payment":0,"oven_warmed":0,"reserve":0,"wifi":0},"phone":null,"place_id":null,"distance":1138.4276322230062,"status":1},{"id":343,"code":"SCF4","name":"Kutabeach Walk 2","latitude":"-8.71675500","longitude":"115.16942000","address":"Starbucks Kuta Beachwalk 2, 2nd Floors #B-11F, Sahid Kuta Lifestyle Resort, Jl. Pantai Kuta, Bali","city":"Bali","operation_hour":"Mon - Sun : 10.00 \u2013 22.00","facility":{"store_location_id":343,"fullhour":0,"drive_thru":0,"mobile_payment":0,"oven_warmed":0,"reserve":0,"wifi":0},"phone":null,"place_id":null,"distance":1148.32934085468,"status":1},{"id":346,"code":"SCF1","name":"Sultan Hasanuddin Airport Makassar","latitude":"-5.07772500","longitude":"119.54948400","address":"Starbucks\u00a0Hasanuddin Airport, Departure Terminal, Jl. Bandar Udara Hasanuddin, Makassar","city":"Makassar","operation_hour":"Mon - Sun : 05.30 - 19.00","facility":{"store_location_id":346,"fullhour":0,"drive_thru":0,"mobile_payment":0,"oven_warmed":0,"reserve":0,"wifi":0},"phone":null,"place_id":null,"distance":518.11648537313,"status":1},{"id":348,"code":"SCE9","name":"Kutabeach Walk 1","latitude":"-8.71728100","longitude":"115.16898400","address":"Starbucks Kuta Beachwalk 1, 1st Floors #F-19-20, Sahid Kuta Lifestyle Resort, Jl. Pantai Kuta, Bali","city":"Bali","operation_hour":"Mon - Sun : 08.00 - 22.00","facility":{"store_location_id":348,"fullhour":0,"drive_thru":0,"mobile_payment":0,"oven_warmed":0,"reserve":0,"wifi":0},"phone":null,"place_id":null,"distance":1148.4037799497662,"status":1},{"id":351,"code":"SCE6","name":"Ciputra World","latitude":"-7.29250100","longitude":"112.71892400","address":"Starbucks Ciputra world Surabaya Jl.Mayjend Sungkono no 87 Lantai Ground Unit 6 Surabaya","city":"Surabaya","operation_hour":"Mon - Sun : 09.00 - 22.00","facility":{"store_location_id":351,"fullhour":0,"drive_thru":0,"mobile_payment":0,"oven_warmed":0,"reserve":0,"wifi":0},"phone":null,"place_id":null,"distance":1285.198877648422,"status":1},{"id":352,"code":"SCE5","name":"Balikpapan Plaza","latitude":"-1.27726700","longitude":"116.83850300","address":"Starbucks Plaza Balikpapan, Ground Floors, Jl. Jend Sudirman No.1, Balikpapan","city":"Balikpapan","operation_hour":"Mon - Sun : 10.00 - 22.00","facility":{"store_location_id":352,"fullhour":0,"drive_thru":0,"mobile_payment":0,"oven_warmed":0,"reserve":0,"wifi":0},"phone":null,"place_id":null,"distance":688.755526603494,"status":1},{"id":354,"code":"SCE3","name":"Legian 101","latitude":"-8.71397900","longitude":"115.17404200","address":"Starbucks Legian Jl. Raya Legian No.117 Badung-Bali","city":"Bali","operation_hour":"Mon - Sun : 07.30 - 22.00","facility":{"store_location_id":354,"fullhour":0,"drive_thru":0,"mobile_payment":0,"oven_warmed":0,"reserve":0,"wifi":0},"phone":null,"place_id":null,"distance":1147.742740095186,"status":1},{"id":356,"code":"SCE1","name":"Grand City","latitude":"-7.26170900","longitude":"112.75074100","address":"Starbucks Grand City Surabaya, Ground Floors 26B+27+28A, Jl. Walikota Mustajab Gubeng, Surabaya","city":"Surabaya","operation_hour":"Mon - Sun : 09.00 - 22.00","facility":{"store_location_id":356,"fullhour":0,"drive_thru":0,"mobile_payment":0,"oven_warmed":0,"reserve":0,"wifi":0},"phone":null,"place_id":null,"distance":1280.516051585471,"status":1},{"id":357,"code":"SCE0","name":"Sultan Aji Muhammad Sulaiman Airport Balikpapan","latitude":"-1.26579900","longitude":"116.89772700","address":"Starbucks Balikpapan Airport, Terminal A, Jl. Marsma R Iswahyudi,  Balikpapan","city":"Balikpapan","operation_hour":"Mon - Sun : 06.00 - 18.00","facility":{"store_location_id":357,"fullhour":0,"drive_thru":0,"mobile_payment":0,"oven_warmed":0,"reserve":0,"wifi":0},"phone":null,"place_id":null,"distance":682.3513960782399,"status":1},{"id":361,"code":"SCD6","name":"East Cost","latitude":"-7.27693100","longitude":"112.80606300","address":"Starbucks East Cost Mall, SG 02 & SM 02, Jl. Kejawen Putih Mutiara, Surabaya","city":"Surabaya","operation_hour":"Mon - Sun : 07.00 - 22.00","facility":{"store_location_id":361,"fullhour":0,"drive_thru":0,"mobile_payment":0,"oven_warmed":0,"reserve":0,"wifi":0},"phone":null,"place_id":null,"distance":1275.8579251049894,"status":1},{"id":363,"code":"SCD4","name":"Mall Ratu Indah","latitude":"-5.15339200","longitude":"119.41684600","address":"Starbucks Mall Ratu Indah, Ground Floors #01A,08A,09A, Jl. Dr. Sam Ratulangi 35, Makassar","city":"Makassar","operation_hour":"Mon - Sun : 07.00 \u2013 21.00","facility":{"store_location_id":363,"fullhour":0,"drive_thru":0,"mobile_payment":0,"oven_warmed":0,"reserve":0,"wifi":0},"phone":null,"place_id":null,"distance":534.6605303731139,"status":1},{"id":364,"code":"SCD3","name":"Petra Square","latitude":"-7.33890100","longitude":"112.73757800","address":"Starbucks Petra Square, Lower Ground Floors A1, Jl. Siwalankerto No. 146-148, Surabaya","city":"Surabaya","operation_hour":"Mon - Sun : 08.00 - 21.00 ","facility":{"store_location_id":364,"fullhour":0,"drive_thru":0,"mobile_payment":0,"oven_warmed":0,"reserve":0,"wifi":0},"phone":null,"place_id":null,"distance":1285.7294182889104,"status":1},{"id":366,"code":"SCD0","name":"Trans Mall Makasar","latitude":"-5.16059400","longitude":"119.39391200","address":"Starbucks Trans Mall Makassar, Lower Ground Floors A-29,31,33, Jl. HM Patompo Metro, Tanjung Bunga, Makassar","city":"Makassar","operation_hour":"Mon - Sun : 10.00 - 21.00","facility":{"store_location_id":366,"fullhour":0,"drive_thru":0,"mobile_payment":0,"oven_warmed":0,"reserve":0,"wifi":0},"phone":null,"place_id":null,"distance":537.0881279661211,"status":1},{"id":369,"code":"SCC7","name":"Solo Paragon","latitude":"-7.56257600","longitude":"110.80997400","address":"Starbucks Solo Paragon Lifestyle Mall, Ground Floors C-07, Jl. Yosodipuro No. 133, Solo","city":"Solo","operation_hour":"Mon - Sun : 09.00 \u2013 22.00","facility":{"store_location_id":369,"fullhour":0,"drive_thru":0,"mobile_payment":0,"oven_warmed":0,"reserve":0,"wifi":0},"phone":null,"place_id":null,"distance":1487.9605553065069,"status":1},{"id":372,"code":"SCC0","name":"Sunset Star","latitude":"-8.70020200","longitude":"115.17778900","address":"Starbucks Ruko Sunset Star, Blok DS - B, Jl. Sunset Road, Kuta, Bali","city":"Bali","operation_hour":"Mon - Sun : 08.00 - 22.00","facility":{"store_location_id":372,"fullhour":0,"drive_thru":0,"mobile_payment":0,"oven_warmed":0,"reserve":0,"wifi":0},"phone":null,"place_id":null,"distance":1146.4337695920904,"status":1},{"id":374,"code":"SCB4","name":"Mall Bali Galeria","latitude":"-8.72326100","longitude":"115.18427000","address":"Starbucks Mal Bali Galeria, Jl. \u00a0By Pass Ngurah Rai, Simpang Dewa Ruci, Denpasar, Bali","city":"Bali","operation_hour":"Mon - Sun : 10.00 - 22.00","facility":{"store_location_id":374,"fullhour":0,"drive_thru":0,"mobile_payment":0,"oven_warmed":0,"reserve":0,"wifi":0},"phone":null,"place_id":null,"distance":1147.561431376008,"status":1},{"id":386,"code":"SC91","name":"Ubud","latitude":"-8.50623400","longitude":"115.26140200","address":"Starbucks Ubud, Jalan Raya Ubud, Gianyar, Bali","city":"Bali","operation_hour":"Mon - Sun : 08.00 - 21.30","facility":{"store_location_id":386,"fullhour":0,"drive_thru":0,"mobile_payment":0,"oven_warmed":0,"reserve":0,"wifi":0},"phone":null,"place_id":null,"distance":1125.4765270397022,"status":1},{"id":388,"code":"SC88","name":"Paragon","latitude":"-6.97891700","longitude":"110.41584200","address":"Starbucks Paragon City, Jl. Pemuda 118, Semarang","city":"Semarang","operation_hour":"Mon - Sun : 08.00 - 22.00","facility":{"store_location_id":388,"fullhour":0,"drive_thru":0,"mobile_payment":0,"oven_warmed":0,"reserve":0,"wifi":0},"phone":null,"place_id":null,"distance":1502.9223540564121,"status":1},{"id":390,"code":"SC85","name":"Balikpapan Superblok","latitude":"-1.27399100","longitude":"116.85960200","address":"Starbucks Balikpapan Superblok E-Walk, Jl. Jend. Sudirman No. 47A, Balikpapan\u00a0\u00a0","city":"Balikpapan","operation_hour":"Mon - Sun : 10.00 \u2013 22.00","facility":{"store_location_id":390,"fullhour":0,"drive_thru":0,"mobile_payment":0,"oven_warmed":0,"reserve":0,"wifi":0},"phone":null,"place_id":null,"distance":686.4635375298324,"status":1},{"id":404,"code":"SC69","name":"Ambarrukmo Plaza","latitude":"-7.78211500","longitude":"110.40159700","address":"Starbucks Plaza Ambarrukmo, Ground Floors, Jl. Laksda Adi Sucipto, Yogyakarta","city":"Yogyakarta","operation_hour":"Mon - Sun : 10.00 - 22.00","facility":{"store_location_id":404,"fullhour":0,"drive_thru":0,"mobile_payment":0,"oven_warmed":0,"reserve":0,"wifi":0},"phone":null,"place_id":null,"distance":1539.018753698923,"status":1},{"id":406,"code":"SC67","name":"Ngurah Rai Airport Bali","latitude":"-8.74391800","longitude":"115.16379400","address":"Starbucks Bali Ngurah Rai Airport, Domestic Terminal (Drop Zone), Jl. I Gusti Ngurah Rai, Bali","city":"Bali","operation_hour":"Mon - Sun : 07.00 - 02.00<br>Wed : 07.00 - 24.00","facility":{"store_location_id":406,"fullhour":0,"drive_thru":0,"mobile_payment":0,"oven_warmed":0,"reserve":0,"wifi":0},"phone":null,"place_id":null,"distance":1150.7650724907846,"status":1},{"id":408,"code":"SC65","name":"Surabaya Town Square","latitude":"-7.29450100","longitude":"112.73020600","address":"Starbucks Surabaya Town Square, Jl. Adityawarman No. 55, Surabaya","city":"Surabaya","operation_hour":"closed","facility":{"store_location_id":408,"fullhour":0,"drive_thru":0,"mobile_payment":0,"oven_warmed":0,"reserve":0,"wifi":0},"phone":null,"place_id":null,"distance":1284.1927092209735,"status":1},{"id":413,"code":"SC60","name":"Juanda Airport Surabaya","latitude":"-7.37472100","longitude":"112.79393400","address":"Starbucks Surabaya Airport, Jl. Ir. H. Juanda No. 1, Surabaya","city":"Surabaya","operation_hour":"Mon - Sun : 04.00 - 20.00","facility":{"store_location_id":413,"fullhour":0,"drive_thru":0,"mobile_payment":0,"oven_warmed":0,"reserve":0,"wifi":0},"phone":null,"place_id":null,"distance":1282.0547216971208,"status":1},{"id":415,"code":"SC58","name":"Tunjungan Plaza 3","latitude":"-7.26315700","longitude":"112.73930100","address":"Starbucks Tunjungan Plaza 3, Jl. Basuki Rachmat No. 8-12, Surabaya","city":"Surabaya","operation_hour":"Mon - Sun : 10.00 - 22.00","facility":{"store_location_id":415,"fullhour":0,"drive_thru":0,"mobile_payment":0,"oven_warmed":0,"reserve":0,"wifi":0},"phone":null,"place_id":null,"distance":1281.7132096870578,"status":1},{"id":417,"code":"SC56","name":"Pakuwon Supermall","latitude":"-7.28993300","longitude":"112.67484100","address":"Starbucks Supermall Pakuwon Indah, G 36A, Jl. Puncak Lontar Indah II, Surabaya","city":"Surabaya","operation_hour":"Mon - Sun : 07.00 - 22.00","facility":{"store_location_id":417,"fullhour":0,"drive_thru":0,"mobile_payment":0,"oven_warmed":0,"reserve":0,"wifi":0},"phone":null,"place_id":null,"distance":1289.3994855802696,"status":1},{"id":419,"code":"SC54","name":"Galaxy Mall 2 (Reserve Store)","latitude":"-7.27427900","longitude":"112.78191800","address":"Starbucks Galaxy Mall 2, Ground Floors #074, Jl. Dharma Husada Indah Timur No. 35-37, Surabaya","city":"Surabaya","operation_hour":"Mon - Sun : 09.00 - 22.00","facility":{"store_location_id":419,"fullhour":0,"drive_thru":0,"mobile_payment":0,"oven_warmed":0,"reserve":0,"wifi":0},"phone":null,"place_id":null,"distance":1278.0916847066958,"status":1},{"id":431,"code":"SC39","name":"Bali Discovery Mall","latitude":"-8.72871100","longitude":"115.16863300","address":"Starbucks Bali Discovery Shopping Mall, Ground Floors, Jl. Kartika Plaza, Kuta, Bali","city":"Bali","operation_hour":"Mon - Sun : 09.00 - 22.00","facility":{"store_location_id":431,"fullhour":0,"drive_thru":0,"mobile_payment":0,"oven_warmed":0,"reserve":0,"wifi":0},"phone":null,"place_id":null,"distance":1149.2601537642338,"status":1},{"id":434,"code":"SC33","name":"Nusa Dua Bali","latitude":"-8.80204600","longitude":"115.23029100","address":"Starbucks Nusa Dua Bali, SOGO Dept. Store, Bali Collection,  Kawasan PariwiSata BTDC, Bali","city":"Bali","operation_hour":"Mon - Sun : 10.00 - 22.00","facility":{"store_location_id":434,"fullhour":0,"drive_thru":0,"mobile_payment":0,"oven_warmed":0,"reserve":0,"wifi":0},"phone":null,"place_id":null,"distance":1149.475756103792,"status":1},{"id":445,"code":"SC12","name":"Tunjungan Plaza 4","latitude":"-7.26213900","longitude":"112.73950300","address":"Starbucks Tunjungan Plaza 4, Ground Floors,  Jl. Embong Malang No.7-21, Surabaya","city":"Surabaya","operation_hour":"Mon - Sun : 10 .00 - 22.00","facility":{"store_location_id":445,"fullhour":0,"drive_thru":0,"mobile_payment":0,"oven_warmed":0,"reserve":0,"wifi":0},"phone":null,"place_id":null,"distance":1281.6419450521316,"status":1},{"id":454,"code":"SC5X","name":"Kerobokan Bali","latitude":"-8.67241700","longitude":"115.16515100","address":"Starbucks Kerobokan Bali, Jalan Keobokan No. 3 Kerobokan Kelod Kecamatan Kuta Utara Badung 80316","city":"Bali","operation_hour":"Mon - Sun : 07.00 - 21.00","facility":{"store_location_id":454,"fullhour":0,"drive_thru":0,"mobile_payment":0,"oven_warmed":0,"reserve":0,"wifi":0},"phone":null,"place_id":null,"distance":1145.4860418971052,"status":1},{"id":455,"code":"SC6N","name":"Pattimura Makassar","latitude":"-5.13624400","longitude":"119.40681200","address":"Starbucks Pattimura Makassar, Pattimura Makassar Lantai 1 D'Prima Losari Makassar Jl. Pattimura No. 9 Kel. Kampung Baru Kecamatan Ujung Pandang Makasar 90174","city":"Makassar","operation_hour":"Mon - Sun : 07.00 \u2013 21.00","facility":{"store_location_id":455,"fullhour":0,"drive_thru":0,"mobile_payment":0,"oven_warmed":0,"reserve":0,"wifi":0},"phone":null,"place_id":null,"distance":534.2212714228443,"status":1},{"id":457,"code":"SC5W","name":"Museum Mandala Semarang","latitude":"-6.98438100","longitude":"110.40856900","address":"Starbucks Museum Mandala Semarang, Jl. Unika Soegiyopranoto No. 1 Barusari Kecamatan Semarang Selatan Semarang 50245","city":"Semarang","operation_hour":"Mon - Sun : 07.00 \u2013 23.00","facility":{"store_location_id":457,"fullhour":0,"drive_thru":0,"mobile_payment":0,"oven_warmed":0,"reserve":0,"wifi":0},"phone":null,"place_id":null,"distance":1503.8909703026682,"status":1},{"id":459,"code":"SC6X","name":"DT KM 456 Semarang Solo","latitude":"-7.32686900","longitude":"110.53218800","address":"Starbucks DT KM 456 Semarang Solo, Resta Pendopo KM 456 GF A-12, Jl. Tol Bawen Salatiga, Baok Kelurahan Ujung Ujung Kecamatan Pabelan, Semarang","city":"Semarang","operation_hour":"Mon - Sun : 08.00 - 22.00","facility":{"store_location_id":459,"fullhour":0,"drive_thru":0,"mobile_payment":0,"oven_warmed":0,"reserve":0,"wifi":0},"phone":null,"place_id":null,"distance":1505.5696592058869,"status":1},{"id":460,"code":"SC6R","name":"Royal Square ","latitude":"-7.31049300","longitude":"112.67935600","address":"Starbucks Royal Square , Jl. Raya Menganti No 47 Babatan Kecamatan wiyung Surabaya 60227","city":"Surabaya","operation_hour":"Mon - Sun : 08.00 - 22.00","facility":{"store_location_id":460,"fullhour":0,"drive_thru":0,"mobile_payment":0,"oven_warmed":0,"reserve":0,"wifi":0},"phone":null,"place_id":null,"distance":1289.9950134641367,"status":1},{"id":461,"code":"SC7A","name":"Kota Lama Semarang \u00a0\u00a0","latitude":"-6.96846800","longitude":"110.42645500","address":"Starbucks Kota Lama Semarang \u00a0\u00a0, Jl. Branjangan No. 5-7 Kelurahan Tanjung Mas Kecamatan Semarang Utara Semarang 50174","city":"Semarang","operation_hour":"Mon - Sun : 09.00 - 21.00","facility":{"store_location_id":461,"fullhour":0,"drive_thru":0,"mobile_payment":0,"oven_warmed":0,"reserve":0,"wifi":0},"phone":null,"place_id":null,"distance":1501.409024265116,"status":1},{"id":463,"code":"SC7B","name":"Setiabudi Semarang","latitude":"-7.04653500","longitude":"110.42068200","address":"Starbucks Setiabudi Semarang, Jl. Setiabudi No. 75 Kel. Tinjomoyo Kecamatan Banyumanik Semarang 50262","city":"Semarang","operation_hour":"Mon - Sun : 08.00 - 22.00","facility":{"store_location_id":463,"fullhour":0,"drive_thru":0,"mobile_payment":0,"oven_warmed":0,"reserve":0,"wifi":0},"phone":null,"place_id":null,"distance":1505.1740019323247,"status":1},{"id":465,"code":"SC7C","name":"S Parman","latitude":"-0.47763900","longitude":"117.15178500","address":"Starbucks S Parman, Jl. S Parman No, 23 - 24 Kelurahan Temindung Permai Kecamatan Sungai Pinang Samarinda 75242","city":"Samarinda","operation_hour":"Mon - Sun : 07.00 \u2013 22.00","facility":{"store_location_id":465,"fullhour":0,"drive_thru":0,"mobile_payment":0,"oven_warmed":0,"reserve":0,"wifi":0},"phone":null,"place_id":null,"distance":670.0830224549769,"status":1},{"id":466,"code":"SC7F","name":"DT Tuparev","latitude":"-6.71070900","longitude":"108.54083500","address":"Starbucks DT Tuparev, Jl. Tuparev No. 52 Kedungjaya Kedawung Cirebon 45153","city":"Cirebon","operation_hour":"Mon - Sun : 07.00 - 23.00","facility":{"store_location_id":466,"fullhour":0,"drive_thru":0,"mobile_payment":0,"oven_warmed":0,"reserve":0,"wifi":0},"phone":null,"place_id":null,"distance":1688.1937574855924,"status":1},{"id":467,"code":"SC7H","name":"Alauddin Makassar ","latitude":"-5.18450300","longitude":"119.44106700","address":"Starbucks Alauddin Makassar , Jl. Sultan Alauddin No. 237 Gn Sari Kec Rappocini Makassar 90221","city":"Makassar","operation_hour":"Mon - Sun : 07.00 \u2013 21.00","facility":{"store_location_id":467,"fullhour":0,"drive_thru":0,"mobile_payment":0,"oven_warmed":0,"reserve":0,"wifi":0},"phone":null,"place_id":null,"distance":534.9868709779536,"status":1},{"id":470,"code":"SC7G","name":"DT Resta 456 B","latitude":"-7.32618700","longitude":"110.53138300","address":"Starbucks DT Resta 456 B, Jl. Tol Bawen Salatiga Baok Ujung Semarang 50771","city":"Semarang","operation_hour":"Mon - Sun : 08.00 - 22.00","facility":{"store_location_id":470,"fullhour":0,"drive_thru":0,"mobile_payment":0,"oven_warmed":0,"reserve":0,"wifi":0},"phone":null,"place_id":null,"distance":1505.6220347570402,"status":1},{"id":481,"code":"SC6S","name":"DT Puri Sidoarjo","latitude":"-7.39541500","longitude":"112.72853500","address":"Starbucks DT Puri Sidoarjo, Jl. Taman Gerbang Utama Kav 9 Puri Surya Jaya Gedangan Sidoarjo 61254","city":"Sidoarjo","operation_hour":"Mon - Sun : 07.00 - 22.00","facility":{"store_location_id":481,"fullhour":0,"drive_thru":0,"mobile_payment":0,"oven_warmed":0,"reserve":0,"wifi":0},"phone":null,"place_id":null,"distance":1289.5114861697105,"status":1},{"id":489,"code":"SC7T","name":"Bali Airport Domestic Arrival","latitude":"-8.74461100","longitude":"115.16245000","address":"Bali Airport Domestic Arrival Ngurah Rai International Airport CFB2 Unit C-F01 Jl. Raya Gusti Ngurah Rai Tuban Kuta, Kabupaten Badung Bali 80362","city":"Bali","operation_hour":"Mon - Sun : 07.00 - 22.00","facility":{"store_location_id":489,"fullhour":0,"drive_thru":0,"mobile_payment":0,"oven_warmed":0,"reserve":0,"wifi":0},"phone":null,"place_id":null,"distance":1150.9273181104156,"status":1},{"id":494,"code":"SC7Z","name":"DT Rest Area KM 25 , KM 753","latitude":"-7.41841700","longitude":"112.69369600","address":"Jl.Tol Gempol Surabaya KM 25 , KM753 Desa Jumutrejo kec. Sukodono","city":"Sidoarjo","operation_hour":"Mon - Sun : 06.00 - 22.00","facility":{"store_location_id":494,"fullhour":0,"drive_thru":0,"mobile_payment":0,"oven_warmed":0,"reserve":0,"wifi":0},"phone":null,"place_id":null,"distance":1294.1004674430617,"status":1},{"id":498,"code":"SC7T","name":"Bali Airport Domestic Arrival","latitude":"-8.74461100","longitude":"115.16245600","address":"Bali Airport Domestic Arrival Ngurah Rai International Airport CFB2 Unit C-F01 Jl. Raya Gusti Ngurah Rai Tuban Kuta, Kabupaten Badung Bali 80362","city":"Bali","operation_hour":"Mon - Sun : 07.00 - 22.00","facility":{"store_location_id":498,"fullhour":0,"drive_thru":0,"mobile_payment":0,"oven_warmed":0,"reserve":0,"wifi":0},"phone":null,"place_id":null,"distance":1150.92681796649,"status":1}],"status":true,"message":true}
