{"store":[{"@context":"https://schema.org","@type":"Store","name":"Polo Ralph Lauren Covent Garden","openingHours":"MON: 11:00AM-07:00PM<br/>\nTUE: 11:00AM-07:00PM<br/>\nWED: 11:00AM-07:00PM<br/>\nTHU: 11:00AM-07:00PM<br/>\nFRI: 11:00AM-07:00PM<br/>\nSAT: 11:00AM-07:00PM<br/>\nSUN: 12:00PM-06:00PM<br/>","telephone":"+44 20 8075 7504","image":"","address":{"@type":"PostalAddress","streetAddress":"11B King Street,WC2E 8HN","areaServed":"London","addressCountry":"GB","department":"Mens, Womens, Home, Baby, jewellery, Other","Location":"London","Event":"","Brand":""},"geo":{"@type":"GeoCoordinates","latitude":51.511576,"longitude":-0.124626}},{"@context":"https://schema.org","@type":"Store","name":"Ralph Lauren Flagship Store New Bond Street","openingHours":"MON: 10:00AM-06:00PM<br/>\nTUE: 10:00AM-06:00PM<br/>\nWED: 10:00AM-06:00PM<br/>\nTHU: 10:00AM-07:00PM<br/>\nFRI: 10:00AM-07:00PM<br/>\nSAT: 10:00AM-07:00PM<br/>\nSUN: 12:00PM-06:00PM<br/>","telephone":"+44 20 7535 4600","image":"","address":{"@type":"PostalAddress","streetAddress":"1 New Bond Street,W1S 3RL","areaServed":"London","addressCountry":"GB","department":"Mens, Womens, Home, Baby, jewellery, Other","Location":"London","Event":"","Brand":""},"geo":{"@type":"GeoCoordinates","latitude":51.509802,"longitude":-0.141418}},{"@context":"https://schema.org","@type":"Store","name":"Ralph's Coffee","openingHours":"MON: 10:00AM-06:00PM<br/>\nTUE: 10:00AM-06:00PM<br/>\nWED: 10:00AM-06:00PM<br/>\nTHU: 10:00AM-07:00PM<br/>\nFRI: 10:00AM-07:00PM<br/>\nSAT: 10:00AM-07:00PM<br/>\nSUN: 12:00PM-06:00PM<br/>","telephone":"+44 20 7535 4600","image":"","address":{"@type":"PostalAddress","streetAddress":"1 New Bond Street,W1S 3RL","areaServed":"London","addressCountry":"GB","department":"","Location":"London","Event":"","Brand":""},"geo":{"@type":"GeoCoordinates","latitude":51.509802,"longitude":-0.141418}},{"@context":"https://schema.org","@type":"Store","name":"Double RL Newburgh Street","openingHours":"MON: 11:00AM-07:00PM<br/>\nTUE: 11:00AM-07:00PM<br/>\nWED: 11:00AM-07:00PM<br/>\nTHU: 11:00AM-07:00PM<br/>\nFRI: 11:00AM-07:00PM<br/>\nSAT: 11:00AM-07:00PM<br/>\nSUN: 12:00PM-06:00PM<br/>","telephone":"+44 20 3794 9616","image":"","address":{"@type":"PostalAddress","streetAddress":"6 Newburgh Street,W1F 7RQ","areaServed":"London","addressCountry":"GB","department":"Mens, Womens, Home, Baby, jewellery, Other","Location":"London","Event":"","Brand":""},"geo":{"@type":"GeoCoordinates","latitude":51.51358,"longitude":-0.138577}},{"@context":"https://schema.org","@type":"Store","name":"Ralph Lauren Home at Harrods","openingHours":"MON: 11:00AM-09:00PM<br/>\nTUE: 11:00AM-09:00PM<br/>\nWED: 11:00AM-09:00PM<br/>\nTHU: 11:00AM-09:00PM<br/>\nFRI: 11:00AM-09:00PM<br/>\nSAT: 11:00AM-09:00PM<br/>\nSUN: 12:00PM-06:00PM<br/>","telephone":"+44 20 7154 1971","image":"","address":{"@type":"PostalAddress","streetAddress":"Third Floor, 87-135 Brompton Rd,SW1X 7XL","areaServed":"London","addressCountry":"GB","department":"Mens, Womens, Home, Baby, jewellery, Other","Location":"London","Event":"","Brand":""},"geo":{"@type":"GeoCoordinates","latitude":51.499392,"longitude":-0.163235}},{"@context":"https://schema.org","@type":"Store","name":"Ralph Lauren Sloane Square","openingHours":"MON: 10:00AM-06:30PM<br/>\nTUE: 10:00AM-06:30PM<br/>\nWED: 10:00AM-06:30PM<br/>\nTHU: 10:00AM-06:30PM<br/>\nFRI: 10:00AM-06:30PM<br/>\nSAT: 10:00AM-06:30PM<br/>\nSUN: 12:00PM-06:00PM<br/>","telephone":"+44 20 3965 3893","image":"","address":{"@type":"PostalAddress","streetAddress":"32-33 Sloane Square,SW1W 8AQ","areaServed":"Chelsea","addressCountry":"GB","department":"Mens, Womens, Home, Baby, jewellery, Other","Location":"Chelsea","Event":"","Brand":""},"geo":{"@type":"GeoCoordinates","latitude":51.492137,"longitude":-0.157725}},{"@context":"https://schema.org","@type":"Store","name":"Ralph Lauren Battersea Power Station","openingHours":"Store opening 14th October.","telephone":"+44 20 7150 6880","image":"","address":{"@type":"PostalAddress","streetAddress":"19 The Power Station, Ground Floor, Battersea Power Station,Turbine Hall, Circus Road South,SW11 8BU","areaServed":"London","addressCountry":"GB","department":"","Location":"London","Event":"","Brand":""},"geo":{"@type":"GeoCoordinates","latitude":51.482008,"longitude":-0.144478}},{"@context":"https://schema.org","@type":"Store","name":"Ralph Lauren Brompton Cross","openingHours":"MON: 10:00AM-06:00PM<br/>\nTUE: 10:00AM-06:00PM<br/>\nWED: 10:00AM-06:00PM<br/>\nTHU: 10:00AM-06:00PM<br/>\nFRI: 10:00AM-06:00PM<br/>\nSAT: 10:00AM-07:00PM<br/>\nSUN: 12:00PM-06:00PM<br/>","telephone":"+44 20 7590 7990","image":"","address":{"@type":"PostalAddress","streetAddress":"105-109 Fulham Road,SW3 6RL","areaServed":"London","addressCountry":"GB","department":"Mens, Womens, Home, Baby, jewellery, Other","Location":"London","Event":"","Brand":""},"geo":{"@type":"GeoCoordinates","latitude":51.492834,"longitude":-0.16969}},{"@context":"https://schema.org","@type":"Store","name":"Ralph Lauren Home Chelsea Harbour","openingHours":"MON: 09:30AM-05:30PM<br/>\nTUE: 09:30AM-05:30PM<br/>\nWED: 09:30AM-05:30PM<br/>\nTHU: 09:30AM-05:30PM<br/>\nFRI: 09:30AM-05:30PM<br/>\nSAT: CLOSED<br/>\nSUN: CLOSED<br/>","telephone":"+44 20 7072 1000","image":"","address":{"@type":"PostalAddress","streetAddress":"Unit G16 Design Centre, Chelsea Harbour,Lots Road,SW10 0XE","areaServed":"London","addressCountry":"GB","department":"Mens, Womens, Home, Baby, jewellery, Other","Location":"London","Event":"","Brand":""},"geo":{"@type":"GeoCoordinates","latitude":51.476461,"longitude":-0.18322}},{"@context":"https://schema.org","@type":"Store","name":"Polo Ralph Lauren Westfield White City","openingHours":"MON: 10:00AM-09:00PM<br/>\nTUE: 10:00AM-09:00PM<br/>\nWED: 10:00AM-09:00PM<br/>\nTHU: 10:00AM-09:00PM<br/>\nFRI: 10:00AM-09:00PM<br/>\nSAT: 10:00AM-09:00PM<br/>\nSUN: 12:00PM-06:00PM<br/>","telephone":"+44 20 8076 7378","image":"","address":{"@type":"PostalAddress","streetAddress":"Westfield Shopping Centre,Unit 1010 Ariel Way, White City,W12 7GF","areaServed":"London","addressCountry":"GB","department":"Mens, Womens, Home, Baby, jewellery, Other","Location":"London","Event":"","Brand":""},"geo":{"@type":"GeoCoordinates","latitude":51.507502,"longitude":-0.219541}},{"@context":"https://schema.org","@type":"Store","name":"Polo Ralph Lauren Westfield White City Childrens","openingHours":"MON: 10:00AM-09:00PM<br/>\nTUE: 10:00AM-09:00PM<br/>\nWED: 10:00AM-09:00PM<br/>\nTHU: 10:00AM-09:00PM<br/>\nFRI: 10:00AM-09:00PM<br/>\nSAT: 10:00AM-09:00PM<br/>\nSUN: 12:00PM-06:00PM<br/>","telephone":"+44 20 7961 0359","image":"","address":{"@type":"PostalAddress","streetAddress":"Westfield Shopping Centre,Ariel Way, White City,W12 7GF","areaServed":"London","addressCountry":"GB","department":"","Location":"London","Event":"","Brand":""},"geo":{"@type":"GeoCoordinates","latitude":51.50733,"longitude":-0.223101}},{"@context":"https://schema.org","@type":"Store","name":"Polo Ralph Lauren Canary Wharf","openingHours":"MON: 09:00AM-08:00PM<br/>\nTUE: 09:00AM-08:00PM<br/>\nWED: 09:00AM-08:00PM<br/>\nTHU: 09:00AM-08:00PM<br/>\nFRI: 09:00AM-08:00PM<br/>\nSAT: 09:00AM-08:00PM<br/>\nSUN: 11:00AM-05:00PM<br/>","telephone":"+44 20 7519 1025","image":"","address":{"@type":"PostalAddress","streetAddress":"Promenade Level,Cabot Place,E14 4QS","areaServed":"London","addressCountry":"GB","department":"Mens, Womens, Home, Baby, jewellery, Other","Location":"London","Event":"","Brand":""},"geo":{"@type":"GeoCoordinates","latitude":51.505016,"longitude":-0.020859}},{"@context":"https://schema.org","@type":"Store","name":"Polo Ralph Lauren Bluewater","openingHours":"MON: 10:00AM-09:00PM<br/>\nTUE: 10:00AM-09:00PM<br/>\nWED: 10:00AM-09:00PM<br/>\nTHU: 10:00AM-09:00PM<br/>\nFRI: 10:00AM-09:00PM<br/>\nSAT: 10:00AM-09:00PM<br/>\nSUN: 11:00AM-05:00PM<br/>","telephone":"+44 1322 617666","image":"","address":{"@type":"PostalAddress","streetAddress":"Lower Guild Hall,Bluewater Shopping Centre,DA9 9SN","areaServed":"Greenhithe","addressCountry":"GB","department":"Mens, Womens, Home, Baby, jewellery, Other","Location":"Greenhithe","Event":"","Brand":""},"geo":{"@type":"GeoCoordinates","latitude":51.439191,"longitude":0.268954}},{"@context":"https://schema.org","@type":"Store","name":"Polo Ralph Lauren Outlet Store Braintree","openingHours":"MON: 10:00AM-06:00PM<br/>\nTUE: 10:00AM-06:00PM<br/>\nWED: 10:00AM-06:00PM<br/>\nTHU: 10:00AM-06:00PM<br/>\nFRI: 10:00AM-06:00PM<br/>\nSAT: 10:00AM-07:00PM<br/>\nSUN: 11:00AM-05:00PM<br/>","telephone":"+44 1376 551987","image":"","address":{"@type":"PostalAddress","streetAddress":"Braintree Village,Charter Way, Chapel Hill,CM77 8YH","areaServed":"Braintree","addressCountry":"GB","department":"","Location":"Braintree","Event":"","Brand":""},"geo":{"@type":"GeoCoordinates","latitude":51.870649,"longitude":0.571319}},{"@context":"https://schema.org","@type":"Store","name":"Polo Ralph Lauren Outlet Store Ashford","openingHours":"MON: 10:00AM-08:00PM<br/>\nTUE: 10:00AM-08:00PM<br/>\nWED: 10:00AM-08:00PM<br/>\nTHU: 10:00AM-08:00PM<br/>\nFRI: 10:00AM-08:00PM<br/>\nSAT: 09:00AM-08:00PM<br/>\nSUN: 11:00AM-05:00PM<br/>","telephone":"+44 1233 510700","image":"","address":{"@type":"PostalAddress","streetAddress":"Ashford Designer Outlet, Kimberly Way,Kimberly Way,TN24 0DQ","areaServed":"Ashford","addressCountry":"GB","department":"","Location":"Ashford","Event":"","Brand":""},"geo":{"@type":"GeoCoordinates","latitude":51.135182,"longitude":0.876644}},{"@context":"https://schema.org","@type":"Store","name":"Polo Ralph Lauren Childrens Outlet Store Bicester","openingHours":"MON: 09:00AM-08:00PM<br/>\nTUE: 09:00AM-08:00PM<br/>\nWED: 09:00AM-08:00PM<br/>\nTHU: 09:00AM-08:00PM<br/>\nFRI: 08:00AM-09:00PM<br/>\nSAT: 08:00AM-09:00PM<br/>\nSUN: 11:30AM-06:00PM<br/>","telephone":"+44 1869 353870","image":"","address":{"@type":"PostalAddress","streetAddress":"Bicester Village,Unit 36-37 Pingle Drive,OX26 6WD","areaServed":"Oxfordshire","addressCountry":"GB","department":"","Location":"Oxfordshire","Event":"","Brand":""},"geo":{"@type":"GeoCoordinates","latitude":51.891004,"longitude":-1.153557}},{"@context":"https://schema.org","@type":"Store","name":"Polo Ralph Lauren Outlet Store Bicester","openingHours":"MON: 09:00AM-08:00PM<br/>\nTUE: 09:00AM-08:00PM<br/>\nWED: 09:00AM-08:00PM<br/>\nTHU: 09:00AM-08:00PM<br/>\nFRI: 08:00AM-09:00PM<br/>\nSAT: 08:00AM-09:00PM<br/>\nSUN: 11:30AM-06:00PM<br/>","telephone":"+44 1869 325200","image":"","address":{"@type":"PostalAddress","streetAddress":"Bicester Village,Pingle Drive,OX26 6WD","areaServed":"Oxfordshire","addressCountry":"GB","department":"","Location":"Oxfordshire","Event":"","Brand":""},"geo":{"@type":"GeoCoordinates","latitude":51.891004,"longitude":-1.153557}},{"@context":"https://schema.org","@type":"Store","name":"Ralph's Coffee at Bicester Village","openingHours":"MON: 09:00AM-08:00PM<br/>\nTUE: 09:00AM-08:00PM<br/>\nWED: 09:00AM-08:00PM<br/>\nTHU: 09:00AM-08:00PM<br/>\nFRI: 08:00AM-09:00PM<br/>\nSAT: 08:00AM-09:00PM<br/>\nSUN: 10:00AM-07:00PM<br/>","telephone":"+44 1869 325200","image":"","address":{"@type":"PostalAddress","streetAddress":"Bicester Village,Pingle Drive,OX26 6WD","areaServed":"Oxfordshire","addressCountry":"GB","department":"","Location":"Oxfordshire","Event":"","Brand":""},"geo":{"@type":"GeoCoordinates","latitude":51.892897,"longitude":-1.160046}},{"@context":"https://schema.org","@type":"Store","name":"Polo Ralph Lauren Outlet Store Portsmouth","openingHours":"MON: 10:00AM-08:00PM<br/>\nTUE: 10:00AM-08:00PM<br/>\nWED: 10:00AM-08:00PM<br/>\nTHU: 10:00AM-08:00PM<br/>\nFRI: 10:00AM-08:00PM<br/>\nSAT: 09:00AM-08:00PM<br/>\nSUN: 11:00AM-05:00PM<br/>","telephone":"+44 23 9289 0030","image":"","address":{"@type":"PostalAddress","streetAddress":"Gunwharf Quays Premium Retail Outlet,Gunwharf Quays,PO1 3TA","areaServed":"Portsmouth","addressCountry":"GB","department":"","Location":"Portsmouth","Event":"","Brand":""},"geo":{"@type":"GeoCoordinates","latitude":50.796214,"longitude":-1.107928}},{"@context":"https://schema.org","@type":"Store","name":"Polo Ralph Lauren Outlet Store Swindon","openingHours":"MON: 10:00AM-08:00PM<br/>\nTUE: 10:00AM-08:00PM<br/>\nWED: 10:00AM-08:00PM<br/>\nTHU: 10:00AM-08:00PM<br/>\nFRI: 10:00AM-08:00PM<br/>\nSAT: 10:00AM-08:00PM<br/>\nSUN: 11:00AM-05:00PM<br/>","telephone":"+44 1793 507080","image":"","address":{"@type":"PostalAddress","streetAddress":"The Great Western Outlet Centre,Kemble Drive,SN2 2DY","areaServed":"Swindon","addressCountry":"GB","department":"","Location":"Swindon","Event":"","Brand":""},"geo":{"@type":"GeoCoordinates","latitude":51.562425,"longitude":-1.798698}},{"@context":"https://schema.org","@type":"Store","name":"Polo Ralph Lauren Manchester","openingHours":"MON: 10:00AM-07:00PM<br/>\nTUE: 10:00AM-07:00PM<br/>\nWED: 10:00AM-07:00PM<br/>\nTHU: 10:00AM-07:00PM<br/>\nFRI: 10:00AM-07:00PM<br/>\nSAT: 10:00AM-07:00PM<br/>\nSUN: 11:00AM-05:00PM<br/>","telephone":"+44 161 839 9456","image":"","address":{"@type":"PostalAddress","streetAddress":"4 New Cathedral Street,M1 1AD","areaServed":"Manchester","addressCountry":"GB","department":"Mens, Womens, Home, Baby, jewellery, Other","Location":"Manchester","Event":"","Brand":""},"geo":{"@type":"GeoCoordinates","latitude":53.483871,"longitude":-2.24476}},{"@context":"https://schema.org","@type":"Store","name":"Polo Ralph Lauren Outlet Store Cheshire Oaks","openingHours":"MON: 09:00AM-08:00PM<br/>\nTUE: 09:00AM-08:00PM<br/>\nWED: 09:00AM-08:00PM<br/>\nTHU: 09:00AM-08:00PM<br/>\nFRI: 09:00AM-08:00PM<br/>\nSAT: 09:00AM-09:00PM<br/>\nSUN: 11:00AM-05:00PM<br/>","telephone":"+44 151 373 4600","image":"","address":{"@type":"PostalAddress","streetAddress":"Unit 167 Cheshire Oaks Designer Outlet,Kinsey Rd, Ellesmere Port,CH65 9JJ","areaServed":"Cheshire","addressCountry":"GB","department":"","Location":"Cheshire","Event":"","Brand":""},"geo":{"@type":"GeoCoordinates","latitude":53.265809,"longitude":-2.881409}},{"@context":"https://schema.org","@type":"Store","name":"Polo Ralph Lauren Leeds","openingHours":"MON: 10:00AM-06:00PM<br/>\nTUE: 10:00AM-06:00PM<br/>\nWED: 10:00AM-06:00PM<br/>\nTHU: 10:00AM-06:00PM<br/>\nFRI: 10:00AM-06:00PM<br/>\nSAT: 10:00AM-06:00PM<br/>\nSUN: 11:00AM-05:00PM<br/>","telephone":"+44 113 245 7424","image":"","address":{"@type":"PostalAddress","streetAddress":"34-36 County Arcade, Victoria Quarter,LS1 6BH","areaServed":"Leeds","addressCountry":"GB","department":"Mens, Womens, Home, Baby, jewellery, Other","Location":"Leeds","Event":"","Brand":""},"geo":{"@type":"GeoCoordinates","latitude":53.798434,"longitude":-1.540551}},{"@context":"https://schema.org","@type":"Store","name":"Polo Ralph Lauren Outlet Store York","openingHours":"MON: 09:30AM-08:00PM<br/>\nTUE: 09:30AM-08:00PM<br/>\nWED: 09:30AM-08:00PM<br/>\nTHU: 09:30AM-08:00PM<br/>\nFRI: 09:30AM-08:00PM<br/>\nSAT: 09:30AM-08:00PM<br/>\nSUN: 11:00AM-05:00PM<br/>","telephone":"+44 1904 663330","image":"","address":{"@type":"PostalAddress","streetAddress":"York Designer Outlet,St Nicolas Avenue, Fulford,YO19 4TA","areaServed":"York","addressCountry":"GB","department":"","Location":"York","Event":"","Brand":""},"geo":{"@type":"GeoCoordinates","latitude":53.921693,"longitude":-1.076713}},{"@context":"https://schema.org","@type":"Store","name":"Polo Ralph Lauren Liverpool","openingHours":"MON: 10:00AM-07:00PM<br/>\nTUE: 10:00AM-07:00PM<br/>\nWED: 10:00AM-07:00PM<br/>\nTHU: 10:00AM-07:00PM<br/>\nFRI: 10:00AM-07:00PM<br/>\nSAT: 10:00AM-07:00PM<br/>\nSUN: 11:00AM-05:00PM<br/>","telephone":"+44 151 319 1488","image":"","address":{"@type":"PostalAddress","streetAddress":"Peters Arcade,8 Peter's Lane,L1 3DE","areaServed":"Liverpool","addressCountry":"GB","department":"Mens, Womens, Home, Baby, jewellery, Other","Location":"Liverpool","Event":"","Brand":""},"geo":{"@type":"GeoCoordinates","latitude":53.404196,"longitude":-2.984417}},{"@context":"https://schema.org","@type":"Store","name":"Polo Ralph Lauren Outlet Store Caledonia Park","openingHours":"MON: 09:00AM-06:00PM<br/>\nTUE: 09:00AM-06:00PM<br/>\nWED: 09:00AM-06:00PM<br/>\nTHU: 09:00AM-06:00PM<br/>\nFRI: 09:00AM-06:00PM<br/>\nSAT: 09:00AM-06:00PM<br/>\nSUN: 10:00AM-06:00PM<br/>","telephone":"+44 1461 339200","image":"","address":{"@type":"PostalAddress","streetAddress":"Polo Ralph Lauren, Caledonia Park,Glasgow Road,DG16 5GG","areaServed":"Gretna","addressCountry":"GB","department":"","Location":"Gretna","Event":"","Brand":""},"geo":{"@type":"GeoCoordinates","latitude":54.997163,"longitude":-3.057486}},{"@context":"https://schema.org","@type":"Store","name":"Polo Ralph Lauren Glasgow","openingHours":"MON: 10:00AM-06:00PM<br/>\nTUE: 10:00AM-06:00PM<br/>\nWED: 10:00AM-06:00PM<br/>\nTHU: 10:00AM-06:00PM<br/>\nFRI: 10:00AM-06:00PM<br/>\nSAT: 10:00AM-06:00PM<br/>\nSUN: 11:00AM-05:00PM<br/>","telephone":"+44 141 242 6000","image":"","address":{"@type":"PostalAddress","streetAddress":"208 Ingram Street,G1 1DQ","areaServed":"Glasgow","addressCountry":"GB","department":"Mens, Womens, Home, Baby, jewellery, Other","Location":"Glasgow","Event":"","Brand":""},"geo":{"@type":"GeoCoordinates","latitude":55.860099,"longitude":-4.250286}}]}
